name,@lat,@lon,type
Wilbur Hot Springs,39.0387911,-122.4211541,hotel
Dana Point Harbor Inn,33.4649032,-117.688786,motel
River Bend Lodge,33.8619634,-114.5282903,hotel
Juniper Lodge,41.7601493,-122.061953,hotel
Altadena Lodge,34.1725209,-118.0884025,hotel
Elkhorn Lodge,34.494715,-118.3098011,hotel
Laurel Springs Lodge,34.50694,-119.7959737,hotel
Breckenridge Lodge,35.4660671,-118.6106436,hotel
The Lodge,36.8102275,-119.7506995,hotel
,32.8011312,-117.258623,hotel
Buckhorn Motel,34.2381617,-117.6563031,motel
Buckhorn Lodge,34.2384709,-117.6552233,motel
Merrybrook Lodge,37.1255937,-122.1265317,motel
Coast Hotel,37.7858845,-122.4133559,hotel
Country Inn & Suites,34.0655411,-117.20961,hotel
Eunice Plaza Motel,34.0798435,-118.0533332,motel
BEST WESTERN Regency Inn,33.6815458,-117.988451,hotel
Hilton,34.1426927,-118.140912,hotel
Marriott's Desert Springs Villas II,33.7490719,-116.359008,hotel
The Beach Cottages,32.79297,-117.255362,hotel
Sheraton Carlsbad Resort and Spa,33.1323974,-117.3101821,hotel
Synergy at Mira Bella,32.806763,-117.149407,hotel
Hilton MarBrisa Resort,33.131738,-117.311918,hotel
,33.174783,-117.36143,motel
Bayview Inn,32.675484,-117.106411,hotel
Western Inn & Suites,32.749708,-117.194538,motel
Travel Time Motel,32.757803,-117.0777905,motel
Harvey's Motel,32.7692516,-117.0435849,motel
Hilton Garden Inn,33.025666,-117.077236,hotel
"Red Roof Inn - Pacific Beach, San Diego",32.803812,-117.216901,hotel
Extended Stay America - San Diego - Fashion Valley,32.77864,-117.161789,hotel
Carlsbad by the Sea Resort,33.1238799,-117.320658,hotel
Quality Inn San Diego Downtown North,32.7247328,-117.161441,hotel
Escondido Lodge,33.088308,-117.071174,hotel
Howard Johnson Inn And Suites San Diego Area/Chula Vista,32.6391969,-117.097032,hotel
PB Surf Beachside Inn,32.800534,-117.256969,motel
Navajo Lodge,32.7583684,-117.0735686,motel
Cassia Hotels,32.67857,-117.1089288,hotel
Courtyard San Diego El Cajon,32.796079,-116.961896,hotel
The Pearl Hotel,32.725349,-117.228983,hotel
The Shoal La Jolla Beach,32.8299659,-117.277507,motel
Orli La Jolla,32.84378,-117.277084,hotel
Sonesta ES Suites,32.990032,-117.075396,hotel
Beachcomber Shores,32.8089152,-117.2571304,hotel
Rodeway Inn San Diego Beach SeaWorld Area,32.8018269,-117.2139484,motel
Pacific View Inn,32.798382,-117.257151,motel
The Seabird Resort,33.19387,-117.382584,hotel
West Park Inn,32.724522,-117.161439,hotel
Lakehouse Hotel and Golf Resort,33.1248362,-117.2079091,hotel
Courtyard San Diego Solana Beach/Del Mar,32.982896,-117.270353,hotel
Old Town Inn,32.7518995,-117.2007534,hotel
La Mesa Lodge,32.769278,-117.025692,motel
Holiday Inn Express,32.720434,-117.158677,hotel
Zephyr,32.780181,-117.099546,motel
Diamond Head Inn,32.798952,-117.257347,motel
Clarion Hotel National City San Diego South,32.676158,-117.107641,hotel
Wyndham Oceanside Pier Resort,33.195074,-117.38377,hotel
,33.6268276,-117.9495661,motel
Stanford Inn by the Sea,39.2998045,-123.7908591,hotel
Oceanside Inn,33.7193364,-118.0724165,motel
Shorebreak Hotel,33.6581642,-118.0026273,hotel
Laguna Beach Motor Inn,33.5472035,-117.7975376,motel
The Ranch at Laguna Beach,33.5129223,-117.748146,hotel
Quality Inn & Suites,33.4581738,-117.67164,hotel
C-Vu Motel,33.4117105,-117.6005327,motel
Garvey Inn,34.0622029,-118.1084947,motel
La Vista Inn Motel,33.4112042,-117.6003949,motel
Hotel Abri,37.7851927,-122.4083668,hotel
Del Mar Motel,34.0485207,-118.098635,motel
Residence Inn,33.4871804,-117.67385,hotel
DoubleTree,33.9115256,-118.070834,hotel
American Inn & Suites,33.8422599,-117.8324018,motel
,37.5037255,-122.4845693,hotel
Win All E - Z Inn,34.0780734,-118.0524809,motel
Budget Inn,34.0783022,-118.0520029,motel
Temecula Creek Inn,33.4672125,-117.1317602,hotel
Residence Inn Oxnard River Ridge,34.2298749,-119.200262,hotel
Casa de Fruta Motel,36.9929525,-121.379159,motel
Hotel Union Square,37.785799,-122.407741,hotel
The Andrews Hotel,37.7879207,-122.412263,hotel
Courtyard San Francisco Airport Hotel,37.6304771,-122.4196952,hotel
Herbert Hotel,37.7862332,-122.4081436,hotel
,33.1459151,-117.2422697,hotel
Best Western,33.5139705,-117.1587906,hotel
Star Motel,37.8003764,-122.4302007,motel
Edward II Inn,37.7989968,-122.4411247,hotel
Wills Fargo Motel,35.267999,-116.0718998,motel
,33.4617564,-117.6963287,hotel
,34.1462715,-118.1070852,motel
Zinkes Drive Inn,34.1456292,-118.138092,hotel
,34.0315869,-117.6278469,motel
Tioga Lodge,37.9899492,-119.1419348,hotel
Glen Oaks Motel,36.2644609,-121.8010183,motel
The Mohave,33.717661,-116.378784,motel
,38.5752356,-121.3053356,hotel
Courtyard,38.5880173,-121.290208,hotel
The View,34.0643064,-118.1539334,motel
Sunnyside Hotel,37.78056,-122.407985,hotel
Courtyard,37.7854586,-122.4210781,hotel
The Disneyland Hotel,33.8093792,-117.9269321,hotel
Embassy Suites,33.6796925,-116.3026176,hotel
Kingsway Motel,37.5241877,-122.2807899,motel
Ridgewood,39.3410129,-123.3158884,motel
Comfort Suites,33.7625201,-116.301914,hotel
The Robinhood Resort,34.2434872,-116.911715,hotel
Edgewater Resort & Lakefront Suites,34.2436894,-116.9168474,motel
Cambria Beach Lodge,35.572302,-121.112037,hotel
Moonstone Inn,35.5702401,-121.1105847,hotel
The Bluebird Inn,35.563028,-121.085587,hotel
The Villas at Disney's Grand Californian Hotel,33.8069162,-117.9227207,hotel
Mt. Vernon Inn,33.1270833,-117.091851,motel
Red Roof Inn San Dimas - Fairplex,34.1097352,-117.822156,hotel
,34.1074011,-117.8176937,hotel
Best Western El Rancho Motor Inn,33.9281907,-116.975952,hotel
The Fitzgerald Hotel,37.7879379,-122.412121,hotel
Floral Inn,34.0451015,-118.1615753,motel
Budgetel River Inn,40.5852912,-122.375434,hotel
,34.0556562,-117.6692318,motel
,36.7725026,-119.8411417,motel
DoubleTree by Hilton Hotel Campbell - Pruneyard Plaza,37.2893734,-121.933495,hotel
Econo Lodge North Parkway Drive,36.7488483,-119.825166,motel
Crowne Plaza Palo Alto,37.4059857,-122.121416,hotel
Americas Best Value Inn,34.894768,-117.043484,motel
The Norconian (historical),33.9289998,-117.5694519,hotel
Quality Inn,34.1464563,-118.082713,hotel
Water's Edge,37.8731755,-122.4563742,hotel
,39.1734239,-121.0534465,motel
Harrah's Rincon Casino & Resort,33.2673211,-116.9553613,hotel
,34.9708262,-120.4358875,hotel
Quality Inn & Suites,34.9513041,-120.416098,hotel
,33.9468407,-117.002431,hotel
,33.2560298,-116.398725,hotel
,33.4747616,-117.720366,hotel
Nick's Cove Cottages,38.1988486,-122.920488,hotel
,34.3890726,-118.5363851,motel
Kokanee Kabins,39.5669634,-120.6673582,motel
,35.6250067,-120.6888426,hotel
,35.4492994,-120.9057413,hotel
,34.2795586,-118.4703787,hotel
,35.6257215,-120.6916122,hotel
Proper,34.0214015,-118.494992,hotel
Gerstle Park Inn,37.9647222,-122.5350547,hotel
,34.9310843,-120.4355042,motel
,34.9240263,-120.4362898,motel
,34.9192149,-120.4352912,motel
,34.9267637,-120.4352293,motel
,35.6513062,-120.6932284,motel
,35.6412396,-120.6873833,motel
Aztec Hotel,34.151536,-118.0057963,hotel
,36.285225,-119.7997981,motel
Villager Inn,36.5629964,-119.6135616,motel
Best Western,36.5740604,-119.625755,hotel
"Aegis Garden, assisted living",37.563625,-122.018845,hotel
Riverfront Cabins,36.4353504,-118.906435,motel
Riverside Inn & Cabins,36.4739909,-118.8526969,motel
Mayflower Hotel,37.7894823,-122.4132914,hotel
Metro Hotel,37.7724581,-122.4374608,hotel
,35.7484954,-120.6991612,motel
,33.6613156,-115.7211067,motel
Handlery Union Square Hotel,37.7871536,-122.4090794,hotel
Best Western,36.6399386,-120.6263306,motel
,34.2382872,-116.9410258,hotel
Motel 6,35.4020714,-119.400544,motel
Quality Inn - Monterey Beach Dunes,36.6993722,-121.805041,hotel
Sanctuary Beach Resort,36.6999863,-121.8061198,hotel
Our Peace of Mammoth - condo rental,37.6476414,-118.987715,hotel
Overnight Campers Motel,36.188902,-121.0764126,motel
,36.1380833,-120.358109,motel
Buena Vista Motel,35.4000573,-119.4615187,motel
McKittrick Motel,35.3039225,-119.6240446,motel
Hotel North Beach,37.7966767,-122.4054169,hotel
Calmada Private Resort & Boutique Hotel,34.1876423,-116.4999802,hotel
,32.7608115,-117.1656674,hotel
,35.1639178,-120.6885852,hotel
,33.9824083,-118.4575418,hotel
Inn at Market,37.7763133,-122.4181543,hotel
,35.1318967,-120.6057351,hotel
Inn at Avila Beach,35.178504,-120.731961,hotel
Knights Inn,34.2436079,-116.915782,motel
,35.180017,-120.735416,hotel
,33.9314865,-117.557064,hotel
Staypineapple An Elegant Hotel,37.7868795,-122.4129683,hotel
,35.5575734,-121.077848,hotel
Burton Inn,35.5624384,-121.0819684,hotel
,35.562733,-121.0824605,hotel
,35.5663378,-121.077597,motel
La Paloma,33.3419725,-118.3283672,hotel
,33.8930105,-118.36554,hotel
The Oasis,33.7966929,-116.5032093,hotel
Lodi Lodge,38.1561543,-121.3011713,motel
Wine and Roses,38.1464315,-121.3073423,hotel
Rodeway Inn,34.0763235,-118.3581861,motel
,34.1345354,-116.31165,hotel
Magic Carpet Lodge,36.6162872,-121.8423556,hotel
,32.6408101,-117.097487,hotel
Long Beach Motel,33.8559408,-118.1851776,motel
Sea Breeze Motel,37.6089555,-122.4972426,motel
Luxe Rodeo Drive Hotel,34.0689163,-118.4024445,hotel
Hotel Zelos San Francisco,37.7852861,-122.4055,hotel
Pontiac Hotel,37.7803615,-122.4083487,hotel
The St. Regis San Francisco,37.7860572,-122.401381,hotel
,35.1558716,-120.668206,hotel
Elliot House Bed & Breakfast,37.1099493,-119.3197673,motel
Hotel & Cabins office,37.1110124,-119.319566,hotel
The Village Suites,37.110607,-119.3201839,motel
,32.7896603,-117.2527155,hotel
Hotel Shahil,37.7839462,-122.4175274,hotel
Americas Best Value Inn,35.4836883,-120.665292,motel
Hotel Le Reve Pasadena,34.1464365,-118.0827141,hotel
,34.2420059,-116.9182443,hotel
,34.0166126,-118.3091403,motel
,34.0168856,-118.30912,motel
Tradewinds Airport Hotel,33.9451952,-118.3485826,hotel
,34.0572163,-117.1766963,motel
,35.448054,-120.9034591,hotel
Quality Inn,32.674524,-115.499026,hotel
Stockton City Motel,37.945187,-121.2682115,motel
Hotel Angels,9.9317317,-84.0680421,hotel
Abril Hostel,9.9329927,-84.0655029,hotel
Ara Macao Inn,9.9319848,-84.0673886,hotel
Casa 69,9.9316803,-84.0676266,hotel
Susie Hotel,37.7973765,-122.4062224,hotel
Marriott's Shadow Ridge I-The Villages,33.7829534,-116.3845562,hotel
Marriott's Shadow Ridge II - The Enclaves,33.7823649,-116.384363,hotel
Edwardian Hotel,37.7734105,-122.4218029,hotel
Residence Inn San Diego Downtown/Bayfront,32.716881,-117.172031,hotel
,35.372693,-119.0117401,hotel
Route 66 Barstow,34.8988677,-117.0144711,motel
Sunset Inn,34.8962222,-117.0379417,motel
Hyland Inn,33.1573722,-117.3385585,motel
,33.1643694,-117.344145,hotel
The Westin Carlsbad Resort & Spa,33.1295138,-117.3089164,hotel
Rodeway Inn Chico,39.7208887,-121.825507,motel
Piccadilly Inn Express,36.7657948,-119.7217832,motel
Ramada Limited Gilroy,37.0205842,-121.570028,hotel
Miner's Motel,37.9631745,-120.4041502,motel
,32.8983331,-117.1901241,hotel
,32.8521688,-117.2571827,hotel
,32.8401654,-117.280557,motel
,32.8295161,-117.2768976,motel
San Giuliano Hotel,33.8212005,-116.5498272,hotel
Warm Sands Villas,33.8147883,-116.5367781,hotel
Desert Eclipse Resort,33.8151225,-116.535614,hotel
Century Palm Springs,33.8141509,-116.5349703,hotel
Palm Springs Hotel & Residences / The Resort / Mondrian,33.8266742,-116.53261,hotel
Escape,33.8091007,-116.5419155,hotel
Villa Rosa Inn,33.8032988,-116.5406936,hotel
Casitas Laquita Inn,33.8015872,-116.5422508,hotel
Colt's Lodge,33.8016989,-116.5302954,motel
Sky Terrace Motel,40.1718796,-122.2307139,motel
Gateway Inn,40.1686044,-122.2276079,motel
Courtyard Inn,38.6470261,-121.384107,hotel
Holiday Lodge,34.4392807,-119.7256714,motel
,34.4389801,-119.7250147,motel
,34.4354996,-119.7261746,motel
,34.4234746,-119.7094922,hotel
,34.4276616,-119.7100995,motel
,34.430521,-119.7140406,motel
Simpson House Inn,34.428991,-119.7081267,motel
,34.4240021,-119.6979523,hotel
,34.4102878,-119.6958099,motel
Franciscan Inn,34.4101435,-119.6943976,motel
,34.4099918,-119.6973726,motel
,34.4093614,-119.6979963,motel
Monarch Cove Inn,36.9761866,-121.9436409,hotel
oceana,34.0214108,-118.5062859,hotel
Venice Admiral Suites,33.9963389,-118.4810035,hotel
Holiday Inn Express Windsor - Sonoma County,38.5460977,-122.8087628,hotel
Rodeway Inn,38.4633643,-122.7273236,motel
Palms Inn,38.3959691,-122.7148265,motel
Black Sterling Villa and Vineyard Estate,38.3510185,-122.7080123,hotel
Glendeven Inn & Lodge,39.2781046,-123.7903722,hotel
,38.9596971,-119.9472327,hotel
Parkside Lone Pine Lodge,38.9608731,-119.9466554,hotel
Tahoe Retreat & Spa,38.9230959,-119.9892759,motel
Tahoe Keys Resort,38.9310462,-120.0049841,hotel
Manzanita Lodge,38.9215759,-120.0214167,motel
,33.8749332,-118.1444695,motel
,33.7751983,-118.1794451,motel
,33.7757951,-118.1788054,motel
Koryu,34.0768537,-118.2918843,hotel
SpringHill Suites San Diego Downtown/Bayfront,32.7168861,-117.17178,hotel
Krishna Hotel,37.7644245,-122.419788,hotel
租房子,33.9870413,-117.8925164,hotel
Circle C Lodge,34.1382306,-116.0818259,motel
,35.6419058,-118.4105246,motel
Ray W. Suites,34.1017759,-118.3366311,hotel
Jolly Roger Hotel,33.9888471,-118.4515532,hotel
,33.7900942,-118.2147535,motel
,33.7902655,-118.2114202,motel
,33.7894128,-118.1973931,motel
Quality Inn Near Long Beach Airport,33.7902851,-118.1543377,hotel
The Westin Long Beach,33.7670941,-118.189015,hotel
,33.8059011,-117.9142604,hotel
Oakwood At The Village Redondo Beach,33.8409393,-118.389095,hotel
,33.851505,-118.3982173,hotel
,33.8991155,-118.3964728,hotel
the vendange,36.5626695,-121.9154584,hotel
,32.7588903,-117.1821737,hotel
Handlery Hotel San Diego,32.7610029,-117.1731873,hotel
,32.7592826,-117.1690262,hotel
,32.760116,-117.1692823,motel
,32.7595823,-117.1662751,motel
,32.7746343,-117.1421177,hotel
,32.7733929,-117.0280412,motel
,32.7732625,-117.0331838,motel
National 9 Inn,32.7656011,-117.0153783,motel
,32.767942,-117.0360928,motel
,32.7657131,-117.0603493,motel
Sommerset Suites Hotel,32.7502616,-117.159506,hotel
,32.7851843,-117.2532726,hotel
Pidgeon at Monte Viston,32.7848133,-117.1278717,hotel
,33.9839067,-118.4576632,hotel
Knights Inn,34.0662545,-118.253988,motel
Beachside Inn,38.9379724,-120.039446,hotel
Big Meadow Lodge Fish Camp,38.239231,-119.2210209,motel
Dorrington Hotel,38.301019,-120.2771625,hotel
Toiyabe Motel,38.5128032,-119.4704812,motel
West Walker Motel,38.5123524,-119.4660777,motel
Sierra Retreat Motel,38.5126891,-119.4639723,motel
Bear's Lair,38.2569767,-120.3467613,motel
Ebbett's Pass Lodge,38.2542482,-120.3535877,motel
목사님댁,34.121417,-118.1472823,motel
Hotel 1550,37.6120095,-122.402696,hotel
Tsewenaldin Inn and Lounge,41.0623363,-123.6859569,hotel
Mayacamas Ranch,38.5708054,-122.6531112,hotel
Shelter Cove Beachcomber Inn,40.0250601,-124.0672284,hotel
Lawrence Motel,33.9940694,-118.4721511,hotel
Arrowhead Pine Rose Cabins,34.2382347,-117.2369441,hotel
Frontier Motel,41.4935415,-120.5429225,motel
Travel Inn,40.4176018,-120.656878,motel
Foothills Motel,38.925524,-121.0584003,motel
Executive Inn San Jose,37.2813061,-121.8381605,motel
,34.4341705,-119.7180359,hotel
Da Vinci Hotel,37.799281,-122.4235872,hotel
Johnny McNally's Lodge,35.9269302,-118.4937392,hotel
Hotel Bellanca,33.344958,-118.3271075,hotel
Pavillon Hotel,33.3430604,-118.324969,hotel
,33.9255996,-118.3780931,hotel
,33.9314315,-118.3283996,motel
Hotel la Molienda,7.3474761,-72.9458381,hotel
Hotel El Santuario,7.3472769,-72.9463092,hotel
Valli Inn Motel,37.928259,-121.2315413,motel
,34.0556504,-118.1349036,hotel
Ayres Suites,34.0034056,-117.8297244,hotel
Marina Del Mar Condominiums and Vacation Rentals,33.2041348,-117.3920951,hotel
Tang Fat Hotel,37.7981377,-122.4084544,hotel
Villa Ocotillo,32.7767936,-115.571431,hotel
El Camino Inn,37.6874679,-122.464865,motel
Hotel Epik,37.7834542,-122.41907,hotel
The Regency Inn,37.7832049,-122.416989,hotel
Hotel Astoria,37.7906389,-122.4058674,hotel
Franklin Bay Inn,37.8006013,-122.4262516,hotel
The Crosby on O' Farrell,37.7859693,-122.4131826,hotel
McGee Creek Lodge,37.585993,-118.7832168,hotel
,36.7093951,-119.5628228,motel
,34.5117884,-118.346717,motel
,36.2876592,-119.1357126,hotel
,35.1249821,-117.9440821,hotel
Travel Inn,36.3201554,-121.2425013,motel
Courtyard,38.2559432,-122.0653944,hotel
The Inn at Spanish Bay,36.6121567,-121.9426502,hotel
,34.0421718,-118.344507,motel
Budget Inn South Lake Tahoe,38.9459254,-119.9635677,motel
Hotel Clariana,37.3370316,-121.8881026,hotel
,38.5523286,-121.454139,hotel
Northstar Lodge by Welk Resorts,39.275704,-120.1226796,hotel
Hotel Metropole,33.3445755,-118.32727,hotel
Jumping Frog Motel,38.0797195,-120.5534126,motel
The Broadmoor,37.7870991,-122.4247299,hotel
Meadow View Inn,38.6105172,-120.5065119,hotel
,34.4197088,-118.4504344,hotel
Webber Lake Hotel,39.4905481,-120.4151942,hotel
Htl 587 Ascend Hotel Collection,37.783223,-122.417288,hotel
Airbnb Brita,32.8288569,-117.2660188,hotel
"Yosemite West Lodging, Inc.",37.651404,-119.7227716,hotel
Deer Mountain Lodge,41.5859902,-122.1937237,hotel
Olympic Village Inn,39.2001213,-120.239023,hotel
Valentina Suites,35.1428326,-120.641494,hotel
,35.6238947,-120.6917024,motel
The Cottage Inn,39.1418718,-120.1543864,hotel
Stone Villa Inn,37.5469872,-122.3073261,hotel
Ponderosa Gardens Motel,39.7624745,-121.6180462,motel
,37.6778816,-119.7668931,hotel
,38.7870936,-121.2255675,hotel
Travel Inn,38.0836225,-122.2318377,motel
River Terrace Inn,38.3050542,-122.2831207,hotel
Bed and Breakfast,40.8734507,-124.0864651,hotel
,32.7541895,-117.2494519,hotel
Nautical,41.9901303,-124.2083172,hotel
Union Hotel,37.764491,-122.4197987,hotel
Red Hill Motel and Cabins,40.7362276,-122.9427115,motel
Anaheim Marriott,33.799045,-117.918297,hotel
Sandyland Reef Inn,34.405247,-119.532591,hotel
Jessica's,38.6625992,-121.3498944,hotel
Inn at Schoolhouse Creek,39.2634339,-123.7837144,hotel
,35.1304228,-120.6310115,hotel
,35.1490321,-120.6515305,motel
El Gran Meson,7.3479902,-72.9465427,hotel
The Four Seasons,37.7632016,-119.107276,motel
Days Inn,33.9252297,-116.9024926,hotel
Freehand Los Angeles,34.0448734,-118.2567592,hotel
"Hotel Per La, Autograph Collection",34.046847,-118.255517,hotel
Courtyard,34.0457869,-118.265787,hotel
JW Marriott Los Angeles L.A. Live,34.0452979,-118.266482,hotel
Tuck Hotel,34.0425115,-118.2539737,hotel
Rancho Bernardo Inn,33.0312444,-117.0666072,hotel
,33.7936579,-117.9926431,motel
Ram’s Hotel,37.7762632,-122.4149931,hotel
Hillside lodge,38.5106101,-122.9864216,hotel
The Hotel Fresno,36.7859278,-119.792288,motel
,34.1479946,-118.253753,hotel
,32.7585428,-117.1703963,hotel
Aloft Dublin Pleasanton,37.7034297,-121.864745,hotel
Shasta Pines Motel,40.8877,-121.656,motel
,32.6920091,-117.1327873,hotel
Studio 6,37.3021048,-120.5015562,hotel
,34.1413312,-118.0202017,hotel
"Highlands Inn, A Hyatt Residence Club",36.50197,-121.937108,hotel
The Getaway,36.5554331,-121.919815,hotel
Contenta Inn,36.479545,-121.7286426,motel
Travelers Inn,38.5781208,-121.5495774,motel
Super 8,38.4475504,-121.8552439,motel
,32.557189,-117.057865,motel
,33.8363274,-117.959404,motel
,34.1265533,-117.2877771,hotel
The Bungalows at Calistoga,38.5831471,-122.5771775,hotel
Cottage Grove Inn,38.5824528,-122.5768033,hotel
Hotel Embassy,37.7823887,-122.4189109,hotel
Canyon Creek resort,38.5146785,-122.0934436,hotel
Ramada,40.9028176,-124.090612,hotel
,33.8082663,-118.0710583,hotel
Residence Inn,33.9749961,-118.4576159,hotel
AC Hotel Palo Alto,37.4173516,-122.10225,hotel
Tahoe Edgelake Beach Club,39.2381054,-120.0362344,hotel
Country Inn & Suites,36.8243618,-119.7839184,hotel
Vagabond House Inn,36.5580401,-121.9225621,hotel
Pine Inn,36.5552604,-121.924172,hotel
Lamp Lighter Inn,36.5548871,-121.92589,hotel
Normandy cottage,36.554894,-121.9255519,hotel
Normandy inn,36.5549094,-121.924861,hotel
,34.4253999,-117.3469147,motel
,39.3279282,-120.2440635,hotel
Martis Camp Lodge,39.2777164,-120.1467844,hotel
Royal Santa Monica Motel,34.0504563,-118.435396,motel
Residence Inn,34.0459839,-118.265659,hotel
Residence Inn San Jose North/Silicon Valley,37.4218466,-121.979031,hotel
Fairfield San Jose North/Silicon Valley,37.4217529,-121.978174,hotel
,33.7215827,-118.0750655,hotel
,34.8654204,-120.449554,hotel
Marriott Westin Resort,33.1300341,-117.308983,hotel
Adobe Inn,36.5529962,-121.9228815,hotel
Alila Napa Valley,38.5093871,-122.478475,hotel
Hotel Shattuck Plaza,37.8691827,-122.2684876,hotel
Yale Hotel,37.7838469,-122.4177943,hotel
Eddy Hotel,37.78333,-122.4182737,hotel
Portola Inn & Suites,33.8592659,-117.9945893,hotel
Balmoral Hotel North # 3,37.7946766,-122.4037786,hotel
Sea Way Motel,34.0388689,-118.3720978,motel
National Inn,33.8787498,-117.583417,motel
Pelican Inn & Suites,35.5746481,-121.1126063,hotel
Seneca Hotel,37.7815694,-122.4097494,hotel
WoodSpring Suites,33.9291674,-117.557411,hotel
,34.1071699,-117.4202858,motel
South Lake Tahoe Lodge,38.9026477,-119.9975359,motel
Cedar Pines Resort,38.906505,-119.9988449,motel
High Country Lodge,38.9063328,-119.999502,motel
Silver Shadows Lodge,38.9058021,-119.9993525,motel
Tahoe Cottage Inn Motel,38.9063265,-120.0011395,motel
Playpark Lodge,38.9073795,-120.0019026,motel
The Shay,34.028025,-118.387391,hotel
Courtyard Mar,34.145968,-118.76805,hotel
Hawthorn Suites,38.6308634,-121.2200624,hotel
Comfort Inn,38.6286662,-121.2190921,hotel
The Westin Mission Hills Golf Resort & Spa,33.8000224,-116.4174997,hotel
Budget Inn,35.064402,-118.1768689,motel
Motel 6,35.0679344,-118.17769,motel
Four Seasons Resort and Residences Napa Valley,38.5847929,-122.567908,hotel
Pacifica Hotel,32.7110948,-117.1608858,hotel
Gaslamp Quarter Hotel,32.7113426,-117.1607626,hotel
"Four Seasons Residence Club Aviara, North San Diego",33.0970461,-117.2835067,hotel
Hotel California,33.6256063,-117.9264928,hotel
Packard House,39.3074121,-123.8018582,hotel
The Madrones,39.0590635,-123.4341054,hotel
Jasmine Hotel,34.020843,-118.4014045,hotel
Hampton Inn & Suites,33.9043667,-117.4954902,hotel
THE COVE HOTEL,33.8039308,-118.191136,hotel
Sheraton Grand Los Angeles,34.0477069,-118.2583016,hotel
,39.8117473,-120.4649231,motel
Desert Hot Springs Spa Hotel,33.9695474,-116.502189,hotel
Pine Mountain Hotel,34.8509668,-119.1650192,hotel
Motel 6,41.423242,-122.3927601,motel
Larkspur Landing Pleasanton,37.6988485,-121.9063742,hotel
Elwell Lakes Lodge,39.6974141,-120.6644353,hotel
Gold Lake Lodge,39.6931806,-120.6581268,hotel
Rodeway Inn Imperial - El centro,32.8351251,-115.5707691,motel
Best Western Plus Thousand Oaks Inn,34.1786508,-118.8787028,hotel
Oaktown Roost,37.8019166,-122.270059,hotel
Northern Inn Motel,40.1176133,-123.8208759,motel
Millz Manor at Fall River Mills,41.0113022,-121.4351691,motel
Days Inn,34.0367217,-118.4705612,hotel
Neptune Palace Hotel,37.7748788,-122.27647,hotel
Ellis,41.9743472,-121.4908404,motel
Park Cienega,34.0451081,-118.3769291,motel
Anne's Motel,34.0456008,-118.3767746,motel
La Cienega Inn,34.0465715,-118.3765005,motel
Travelodge Fairfield/Napa Valley,38.218343,-122.1318462,hotel
Pink Motel,34.2411604,-118.3962075,motel
Nite Inn at Universal City,34.1374235,-118.3638676,motel
Alila Ventana Big Sur,36.2290296,-121.7607205,hotel
La Quinta Inn & Suites San Diego SeaWorld/Zoo,32.7629572,-117.15843,hotel
Hotel Sausalito & Suites,37.855796,-122.4790857,hotel
The Inn Above Tide,37.855752,-122.4785963,hotel
Heritage Inn Bed & Breakfast,35.2864723,-120.6656624,hotel
Napa River Inn,38.2964125,-122.2828577,hotel
Homewood Suites by Hilton Los Angeles International Airport,33.9460537,-118.392895,hotel
"H Hotel Los Angeles, Curio Collection by Hilton",33.946053,-118.392718,hotel
Washington Square Inn,37.8012647,-122.4092124,hotel
Wagon Wheel Motel,36.6999844,-121.6524203,motel
Monterey Motel,33.9121757,-118.2908653,motel
Monterey Motel,33.9121826,-118.2913843,motel
The Inn at Boatworks,39.1734102,-120.1379645,hotel
Mother Nature's Inn,39.1717969,-120.1405872,motel
,32.7362232,-117.2551861,hotel
Ocean Luxury Lofts & Suites,34.0130512,-118.4963361,hotel
Cypress Inn,36.5540141,-121.9234298,hotel
Toppers Motel,35.1405272,-119.449555,motel
Yosemite Riverside Inn,37.8289969,-120.0042667,motel
InterContinental Los Angeles Downtown,34.0500222,-118.2600358,hotel
Dwight's Home,37.4642619,-122.2392183,hotel
Motel 6,38.5932615,-121.2891689,motel
Los Angeles Athletic Club,34.0465524,-118.25513,hotel
Trylon hotel,34.105417,-118.3314767,hotel
Tru,37.7992898,-121.1928158,hotel
Americas Best Value Inn,37.7971962,-121.1861973,motel
Lamplighter Motel,40.7697564,-124.1908722,motel
Humboldt Gables Motel,40.499429,-124.1067123,motel
WhyHotel,37.3383344,-121.8874674,hotel
Econo Lodge,38.2490589,-122.0522244,motel
Santa Clarita Motel,34.3896594,-118.5353797,motel
Andalusian Court,33.8214817,-116.55084,hotel
West End Hotel,34.0474474,-118.4490427,hotel
Hotel Lexen,34.377216,-118.5258317,hotel
Conrad Los Angeles Hotel,34.0551379,-118.2485056,hotel
Hotel Brooks,34.0473078,-118.4492971,hotel
Motel San Diego,32.8070511,-117.2196338,hotel
H,34.8558679,-117.0832958,hotel
Cathy's Cottages,34.2595819,-116.8553723,motel
AC Hotel by Marriott Oakland Downtown,37.8060566,-122.2748329,hotel
Residence Inn By Marriott Oakland Downtown,37.8063123,-122.274668,hotel
Hatrack Motel,34.119479,-116.4449957,motel
Sands Motel,34.1177625,-116.4545497,motel
Desert Sky Motel & RV Park,34.1179868,-116.4535734,motel
Fiesta Motel,34.1070707,-117.3770837,motel
Luma Hotel San Francisco,37.7748054,-122.3902313,hotel
Highlands Ranch Resort,40.3592907,-121.4939435,hotel
Tropics Motor Hotel,33.7272851,-116.2295461,motel
Rodeway Inn,33.7274655,-116.2299701,motel
Holiday Motel,33.7272259,-116.2313734,motel
Motel 6,33.7280089,-116.231522,motel
Ruta Motel,33.7286608,-116.2324628,motel
"Hotel Citrine, Palo Alto",37.4179031,-122.1020104,hotel
Oasis Inn,33.2568974,-116.3915527,motel
Trixie Motel,33.8434213,-116.5478814,hotel
Holiday Inn Express & Suites,35.4429286,-119.0818798,hotel
,33.7254188,-116.2259004,motel
Motel 6,33.8991118,-118.3268506,motel
Vichy Springs Resort Inn,39.1670068,-123.1578904,hotel
Blue Iguana Inn,34.4316316,-119.2805948,hotel
Rose Bowl Motel,34.1398384,-118.1988626,motel
Lyfe Inn,34.240189,-118.3952069,hotel
Hilton House,38.6551859,-121.5376371,hotel
ERTH INN,35.049165,-118.1721162,motel
,33.8713775,-118.0816891,hotel
Econo Lodge,41.7275164,-122.6371739,motel
Super 8,41.740356,-122.6312979,motel
"Motel 6 Woodland, CA – Sacramento Airport",38.6762741,-121.7488617,motel
Wasco Inn Motel,35.6019248,-119.3391072,motel
Cinderella Motel,35.6013451,-119.3433524,motel
Best Western Plus,35.6024975,-119.3453662,hotel
Trillium Inn,39.3050614,-123.8016708,hotel
Hampton Inn & Suites,37.3542946,-122.0153712,hotel
Navy Gateway Inn and Suites,32.6989096,-117.1941599,hotel
Walker mansion inn,40.3018006,-121.0008794,hotel
The National Exchange Hotel,39.2622862,-121.0180624,hotel
Hampton Inn and Suites,38.9510964,-119.950094,hotel
Adara Hotel Palm Springs,33.804455,-116.5450384,hotel
Chase Hotel,37.7779612,-122.4161342,hotel
Morrison Hotel,34.0395653,-118.2654059,hotel
Stage Coach Lodge,36.5936882,-121.88045,motel
Regency Inn,38.1354061,-122.2556919,hotel
,34.1060302,-117.4724671,motel
,34.1061075,-117.4731069,motel
,34.1070858,-117.473261,motel
,34.106165,-117.4742793,motel
City Motel,33.9999121,-118.28292,motel
Boulevard Motel,33.9767058,-118.2828936,motel
New Bay Motel,33.963038,-118.2829254,motel
Malibu Beach Inn,34.0381194,-118.6744587,hotel
YOTEL San Francisco,37.7804458,-122.4121718,hotel
108 Motel,33.9385584,-118.2785464,motel
Residence Inn Pleasant Hill Concord,37.9627973,-122.0553016,hotel
TownePlace Suites Sacramento Airport Natomas,38.6441802,-121.5189397,hotel
,33.8093185,-118.0303974,hotel
Trend Hotel LAX,33.9312588,-118.3509029,hotel
Bonnie's Inn Motel,38.1983542,-120.6867255,motel
Mountain View Inn,41.7405512,-122.6335166,motel
The Castle House Estate,34.1652837,-116.2616379,hotel
The Sand Pebbles,32.9847893,-117.2705019,hotel
Fairfield Inn & Suites,34.8477755,-117.0816646,hotel
TownePlace Suites,34.8479199,-117.0812537,hotel
Home2 Suites,38.5821918,-121.5216029,hotel
Americas Best Value Inn,38.8824958,-121.9720178,motel
Hotel Catalina,33.3445405,-118.3279181,hotel
Snug Harbor Inn,33.3437865,-118.3259363,hotel
Casa Mariquita,33.3431624,-118.3282612,hotel
Mt. Ada,33.3413819,-118.321433,hotel
Best Western Colfax,39.0922159,-120.9519236,hotel
Oxford Suites,38.3637948,-122.7166196,hotel
Motel 6,37.7633814,-122.5095517,motel
Townplace Suites,32.7205582,-117.1591329,hotel
Hampton Inn,34.9883943,-118.9422134,hotel
Super 8,35.3434081,-119.0039217,motel
Courtyard By Marriott Marina del Rey,33.9744684,-118.457427,hotel
Residence Inn,33.8668735,-117.7528117,hotel
Days Inn,34.0951365,-118.1286453,hotel
Secret Garden Inn & Cottages,34.4272192,-119.7169867,hotel
Stanly Ranch,38.2441635,-122.299168,hotel
The Line,37.7830487,-122.4098875,hotel
Hotel 964,37.7806477,-122.4063071,hotel
Super 8,37.7857964,-122.4117933,motel
Holiday Inn Express,37.7861752,-122.4086673,hotel
Long Barn Lodge,38.0912924,-120.1365123,motel
Economy Inn,38.6113647,-121.4453373,motel
Home2 Suites by Hilton Big Bear Lake,34.2438814,-116.8894491,hotel
Hampton Inn Big Bear Lake,34.2438814,-116.8899446,hotel
Motel 6,33.9456901,-118.3473416,motel
CW Hotel,37.7797699,-122.403618,hotel
Home2 Suites by Hilton San Jose South,37.2587233,-121.7846698,hotel
Coho Cottages,40.9412011,-123.6331325,hotel
El Capitan Hotel,37.7592189,-122.4188146,hotel
Holiday Inn Express,33.9252398,-116.9098425,hotel
Days Inn,33.7478652,-116.9793141,hotel
Home2 Suites,33.4983885,-117.1599209,hotel
Residence Inn,33.8629001,-117.879995,hotel
Home2 Suites,33.8115234,-117.9128178,hotel
SpringHill Suites,33.9337403,-118.1230406,hotel
Residence Inn,34.1418429,-118.0235307,hotel
TownePlace Suites,34.1401546,-118.0013292,hotel
Home2 Suites,34.1185795,-117.9085599,hotel
Days Inn,34.0780151,-117.6263257,hotel
Home2 Suites by Hilton Riverside March Air Reserve Base,33.8892443,-117.2732359,hotel
Days Inn,34.0700241,-117.3785554,hotel
Rodeway Inn,34.0464818,-117.3126879,motel
Rodeway Inn,34.0801609,-117.2958894,motel
Home2 Suites by Hilton San Bernardino,34.0709154,-117.2682769,hotel
Minna Hotel,37.7803019,-122.408139,hotel
Raman Hotel,37.7792894,-122.4073513,hotel
Fairfield Inn & Suites,37.6087875,-122.4961427,hotel
,37.7880863,-122.4111733,hotel
,37.7875855,-122.4111459,hotel
Holistic Health Lodging,34.3681546,-117.654455,motel
Econo Lodge Inn & Suites Escondido Downtown,33.124068,-117.0905447,hotel
White Oaks,34.6991359,-120.4665027,hotel
Best Western Antelope Inn & Suites,40.1817969,-122.2204426,hotel
Firefall Ranch at Yosemite,37.8146448,-120.1091179,hotel
Residence Inn Fremont Silicon Valley,37.5321196,-122.0025049,hotel
Nob Hill Hotel,37.7886391,-122.4170672,hotel
Inn at the Pier,35.139305,-120.6422156,hotel
Mission Pacific Beach Resort,33.194587,-117.3828887,hotel
Motel 6,38.6375584,-121.4764738,motel
Springhill Suites Pleasanton,37.6923509,-121.9162327,hotel
Townplace Suites Pleasanton,37.6924486,-121.9170105,hotel
Creekside Inn and Resort,38.4992395,-122.9951791,hotel
Hampton Inn & Suites,39.1361007,-121.6371211,hotel
Inn at Gough,37.7746441,-122.4226638,hotel
Lincoln Park Motel,34.0694121,-118.2002709,motel
Mine + Farm,38.5061749,-122.9606839,hotel
Tuscan Garden Inn,34.0519059,-118.2814959,hotel
Santa Fe Motel,35.1320284,-118.4485137,motel
Hotel Atwater,33.343532,-118.3266966,hotel
Moxy,34.0406639,-118.2674897,hotel
AC Hotel,34.0409131,-118.2672406,hotel
Kenwood Inn & Spa,38.402812,-122.5402357,hotel
The Homestead,36.5527848,-121.9234153,hotel
The Green Lantern,36.5535555,-121.9251064,hotel
Edgemere Cottages,36.5458801,-121.9275261,hotel
Evergreen Lodge,37.8758593,-119.8579518,hotel
Hotel Covell,34.0998804,-118.2901832,hotel
Aloft,38.652816,-121.5294195,hotel
Salmon Lake Lodge,39.6559774,-120.6566595,hotel
Buttes Resort,39.5656593,-120.6342039,hotel
Sierra Pines Resort,39.56239,-120.6428125,hotel
Packer Lake Lodge,39.6221245,-120.6578638,hotel
Sardine Lake Resort,39.61684,-120.6239333,hotel
Carmel Fireplace Inn,36.5578071,-121.9220188,motel
Mariposa Hotel Inn,37.4846849,-119.9653273,hotel
Flamingo Motel,34.2061687,-119.1775366,motel
,33.8201031,-116.4064014,hotel
Everhome Suites,33.527351,-117.1686965,hotel
Super 8,38.2684208,-122.033904,motel
Royal Inn,36.9170471,-121.7610333,motel
Wall Street Inn,36.9096456,-121.7579277,motel
Ebb Tide Motel,32.7543831,-117.2471596,motel
Motel 6,33.9066325,-116.5470219,motel
,33.904179,-118.2912075,hotel
,33.9233071,-118.2824378,hotel
Monterey Plaza Hotel & Spa,36.6120452,-121.8979012,hotel
motel 6,38.5491161,-121.7045734,hotel
Shorelight Inn,38.0487869,-122.1607747,hotel
Montage Healdsburg,38.6483531,-122.8569377,hotel
AC Hotel,38.5822156,-121.4968563,hotel
Two Thirty-Five Luxury Suites,38.6096597,-122.8705597,hotel
,38.4695435,-123.0075175,hotel
Motel 6,40.4541171,-122.2912143,motel
Stanford Motor Inn,37.4207649,-122.1364466,hotel
WoodSpring Suites,34.608804,-118.1494025,hotel
SureStay Plus by Best Western Sacramento Cal Expo,38.6007561,-121.4565195,hotel
Residence Inn,38.5987793,-121.4547115,hotel
Staybridge Suites,38.6756868,-121.7521881,hotel
ForFriends Inn,34.6135278,-120.0820835,hotel
Sequoia Lodge,35.7868076,-118.4467256,hotel
The Greens,38.535554,-121.4471655,motel
Silvey's Motel,38.5820169,-121.5220098,motel
Town House Motel,38.5823737,-121.5204109,motel
Budget Inn,34.8486926,-114.6194352,motel
Valley Oaks Inn,38.6972544,-121.7645601,motel
Home2 Suites,40.7888035,-124.1806586,hotel
Lake Elsinore Motel,33.6729822,-117.3252482,motel
WoodSpring Suites,37.5783239,-120.9402037,hotel
Williams Hotel,39.1542077,-122.1496904,hotel
The Delphi Hotel Downtown LA,34.0501241,-118.2569056,hotel
Ayres Hotel Laguna Woods,33.6102428,-117.7298216,hotel
River Valley Lodge,39.2537804,-122.0306485,hotel
Cache Creek Casino Resort Hotel,38.7331518,-122.1424764,hotel
Hotel Nova,37.6424835,-122.4037297,hotel
Travelodge by Wyndham San Francisco Airport North,37.6452819,-122.4054956,hotel
DoubleTree,37.6468038,-122.404584,hotel
Rodeway Inn SFO,37.648296,-122.4057562,motel
Cambria Hotel Templeton - Paso Robles,35.5549596,-120.7172855,hotel
Heavenly Rest Inn,41.0037952,-121.4381462,hotel
Fairfield Inn & Suites,37.7159761,-121.7005374,hotel
The Black Forest Lodge,40.2592671,-121.375921,motel
Cedar Lodge,40.2758294,-121.254621,motel
Timber House,40.3008196,-121.2357787,motel
paradice inn,38.956363,-119.9461916,hotel
Roman Spa Hot Springs Resort,38.579493,-122.5802605,hotel
Hotel Castro,37.7609019,-122.4367033,hotel
Ocean Park Motel,37.7364116,-122.5039595,motel
Tahoe Mountain Inn,38.9274368,-119.9827377,hotel
Hampton Inn & Suites,39.7301394,-121.8092287,hotel
Little Bear Cottages,39.2377479,-120.0291045,motel
Lakeside Suites,39.2375011,-120.0295333,motel
The Pickwick Hotel,37.7830549,-122.4066689,hotel
,36.6982844,-121.6521196,motel
Econo Lodge,39.904394,-122.1969571,motel
American Inn,39.9283458,-122.1948803,motel
7 Inn,39.9255142,-122.1978845,motel
Economy Inn,39.92712,-122.1972659,motel
The Tiverton,34.0632926,-118.442233,hotel
The Inn at 2nd & C,40.8042777,-124.1701307,hotel
Quality Inn & Suites,39.5214452,-122.2128325,hotel
,39.5228791,-122.2125799,hotel
Everhome Suites,34.0666937,-117.2660952,hotel
"Dextro, Little Italy, BW Premier Collection",32.7223454,-117.1633985,hotel
Hotel Káterina,39.7247197,-121.8042172,hotel
San Joaquin Hotel,36.807903,-119.8157198,hotel
The Gables Inn,37.8547348,-122.4800236,hotel
Holiday Inn (Coming soon),38.6370658,-121.4974744,hotel
Anaheim Tropic Motel,33.8219605,-117.9157181,motel
Everhome Suites,34.0699172,-117.6132067,hotel
"Timbri Hotel San Francisco, Curio Collection by Hilton",37.783235,-122.409646,hotel
Travelodge by Windham Sacramento,38.563242,-121.3374799,hotel
Pine Needles Inn,41.3007571,-122.305822,motel
Quality Inn,39.1399365,-121.6299477,hotel
Pacific inn,35.1209748,-120.6254131,hotel
Summerfield Inn,36.8284254,-119.7906106,motel
Economy Inn,36.7957278,-119.789124,motel
Travelodge,36.7882963,-119.789433,hotel
Regency Inn,36.7874916,-119.789872,motel
Montecito Inn,34.421254,-119.6404825,hotel
Santa Paula Motel,34.3574224,-119.0506414,motel
Ritz Inn,37.6164931,-122.4079441,motel
Harvard Motel,34.3479449,-119.0660772,motel
Hotel Lynwood,33.9272502,-118.2103392,hotel
Rio Inn & Suites,39.1286031,-121.5822998,motel
,33.9234453,-117.9673606,motel
The Bar and Cafe at The Rio Nido Lodge,38.5210098,-122.9783519,hotel
La Playa Hotel & Bar,36.5524753,-121.9262288,hotel
Lavender Inn By The Sea,34.410269,-119.6962845,hotel
Hotel Europa,33.7350143,-117.996634,hotel
Casa Madrona Hotel & Spa,37.8571033,-122.4810199,hotel
Abpopa Hillcrest,32.7465375,-117.1618273,hotel
EC Motel,34.0244005,-118.3091098,motel
Holiday Inn,34.0664373,-118.1340511,hotel
Cardinal Hotel,37.444469,-122.1613714,hotel
Healdsburg Inn,38.6103464,-122.8698195,hotel
WoodSpring Suites,32.8352828,-117.0068606,hotel
Hampton Inn & Suites,40.0551654,-79.9119543,hotel
The Ventura Inn,34.2809799,-119.2934185,hotel
Keystone motel,33.916619,-118.0829527,motel
Ontario - Convention Center and Hotel,34.0631918,-117.6129367,hotel
Murrieta Hot Springs,33.5578635,-117.1561171,hotel
Mendocino Hotel,39.3050465,-123.8006569,hotel
Oakland Marriott City Center,37.8021143,-122.2731461,hotel
Embassy Suites San Francisco Airport,37.5916019,-122.3480107,hotel
Courtyard by Marriott San Francisco Airport Burlingame,37.5893001,-122.349599,hotel
Wyndham Garden San Jose Silicon Valley,37.2476022,-121.7738033,hotel
Extended Stay America,37.2349583,-121.7751895,hotel
Extended Stay America,37.2345312,-121.7744619,hotel
Best Western Plus Vineyard Inn,37.7157331,-121.7026932,hotel
The Westin San Francisco Airport,37.6034686,-122.3760325,hotel
San Francisco Airport Marriott,37.6021004,-122.370169,hotel
Holiday Inn Express & Suites Mountain View Silicon Valley,37.4064116,-122.0644343,hotel
Extended Stay America,37.4195937,-121.9756887,hotel
Argonaut Hotel,37.8071875,-122.4202487,hotel
Chelsea Motor Inn,37.7996292,-122.4357241,motel
The Gualala Hotel,38.7668911,-123.5287648,hotel
Embassy Suites San Diego Bay Downtown,32.7120385,-117.1704957,hotel
Hyatt Regency Long Beach,33.7631605,-118.1908258,hotel
Holiday Motel,37.116007,-121.6438893,motel
Paradise Motel,37.1175284,-121.6448701,motel
Holiday Inn Express,37.1336051,-121.6318689,hotel
Quality Inn,37.126438,-121.628798,hotel
Executive Inn,37.1256573,-121.6282303,motel
Microtel Inn & Suites by Wyndham Morgan Hill/San Jose Area,37.1233335,-121.6271136,hotel
Comfort Inn & Suites,37.1229534,-121.6269114,hotel
Hampton Inn Morgan Hill,37.1210593,-121.6242859,hotel
Hilton Garden Inn Gilroy,36.9885765,-121.5595578,hotel
Motel 6,36.9894029,-121.5593571,motel
Comfort Inn,37.0237666,-121.566005,hotel
Motel 6,37.0239736,-121.5648075,motel
Days Inn by Wyndham Gilroy,37.0206637,-121.5681019,hotel
Motel Cinderella,36.858195,-121.402405,motel
SureStay,36.8661033,-121.4022802,hotel
Hyatt Regency San Francisco,37.7942899,-122.3957361,hotel
Hacienda de Léal,36.8397135,-121.5324658,hotel
SenS Hotel,37.8793261,-122.269606,hotel
National 9 Motel,36.9814593,-121.5568126,motel
Courtyard San Jose South Morgan Hill,37.152748,-121.6561574,hotel
Residence Inn Morgan Hill,37.1532488,-121.6553289,hotel
Extended Stay America,37.150553,-121.6516682,hotel
POSADA de San Juan,36.8445518,-121.5376501,hotel
King's Rest Motel,37.0167895,-121.5741761,motel
The Oaks Motel,37.0162064,-121.573689,motel
Motel 6,37.9916593,-122.3050257,motel
Courtyard Richmond Berkeley,37.977445,-122.32329,hotel
Hampton Inn and Suites,37.6018027,-122.3716343,hotel
Hampton Inn San Diego - Downtown,32.7212927,-117.1705308,hotel
Pacific Inn Hotel & Suites,32.7226661,-117.1706162,hotel
Residence Inn San Diego Downtown,32.7233963,-117.1706725,hotel
Aloft San Francisco Airport,37.6027473,-122.3777013,hotel
Vagabond Inn - San Francisco Airport Bayfront (SFO),37.600257,-122.3675774,motel
Bay Landing Hotel,37.5986147,-122.3662259,hotel
Holiday Inn Express,37.956672,-122.331352,hotel
Crowne Plaza San Francisco Airport,37.5899668,-122.3595162,hotel
Manchester Grand Hyatt San Diego,32.7099198,-117.1678917,hotel
Omni San Diego Hotel,32.7068479,-117.1587656,hotel
Sheraton San Diego Resort,32.7268592,-117.1978156,hotel
Towneplace Suites by Marriott Sunnyvale Silicon Valley,37.3727979,-122.0561749,hotel
Paradise Point Resort and Spa,32.7749887,-117.2391299,hotel
"Avatar Hotel, a Joie de Vivre hotel",37.3913541,-121.9772439,hotel
"The US Grant, A Luxury Collection Hotel",32.7160776,-117.1615144,hotel
Holiday Inn,37.9232776,-122.0627406,hotel
Embassy Suites Walnut Creek,37.9271374,-122.0582076,hotel
Walnut Creek Marriott,37.9124178,-122.0662758,hotel
Park Inn by Radisson,37.9137337,-122.0660606,hotel
San Diego Marriott Marquis & Marina,32.7081006,-117.1656866,hotel
Hyatt House,37.777931,-121.9778819,hotel
Bay Inn & Suites,32.750002,-117.2120216,hotel
La Quinta Inn & Suites San Diego Mission Bay,32.8072308,-117.2181227,motel
Homewood Suites by Hilton San Diego Mission Valley / Zoo,32.762267,-117.1596737,hotel
Motel 6 San Diego North,32.834564,-117.1720491,motel
The Keating Hotel,32.7138334,-117.1604236,hotel
Sea Harbor Hotel,32.7232212,-117.2283618,hotel
Point Loma Inn,32.7246321,-117.2287975,motel
Courtyard San Diego Gaslamp/Convention Center,32.7101219,-117.1589111,hotel
Pleasant Inn,32.834598,-117.1733308,hotel
Grande Colonial La Jolla,32.8472503,-117.2753517,hotel
Hyatt Regency La Jolla at Aventine,32.870792,-117.2256652,hotel
Holiday Inn San Diego - Bayside,32.7260985,-117.2225057,hotel
Comfort Inn San Diego Old Town,32.7493737,-117.1946004,hotel
ITH Eco Farm House San Diego,32.7222769,-117.1658623,hotel
Panama-Senator Hotel,32.7134214,-117.1641036,hotel
DoubleTree by Hilton Hotel San Diego - Mission Valley,32.7698907,-117.1602697,hotel
Extended Stay America - San Diego - Hotel Circle,32.7579622,-117.1812825,hotel
Grand Pacific Palisades Resort and Hotel,33.1239064,-117.3152369,hotel
Wyndham Harbour Lights,32.7150008,-117.1598555,hotel
Gaslamp Plaza Suites,32.7148446,-117.1598564,hotel
Palihotel San Diego,32.7141005,-117.1595157,hotel
Hilton San Diego Gaslamp Quarter,32.7079782,-117.1607109,hotel
San Diego Marriott Gaslamp Quarter,32.7085907,-117.1587301,hotel
Margaritaville Hotel San Diego Gaslamp Quarter,32.7097432,-117.1587459,hotel
ANdAZ San Diego,32.7138833,-117.1588055,hotel
Grand Pacific Palisades Resort and Hotel,33.1248366,-117.3156733,hotel
Hotel Boheme,37.7991904,-122.4083195,hotel
Beacon Grand,37.7889804,-122.4082657,hotel
Grand Hyatt San Francisco,37.7891243,-122.4072404,hotel
Best Western Americana Hotel,37.7788815,-122.4098302,hotel
San Francisco Proper Hotel,37.7808871,-122.4124903,hotel
San Francisco Marriott Union Square,37.7894629,-122.4083149,hotel
Hilton Santa Clara,37.4025256,-121.9766987,hotel
Westin Bonaventure,34.0527577,-118.255853,hotel
Motel 6,37.8021166,-122.4243223,motel
Comfort Inn By the Bay,37.8009222,-122.4249385,hotel
Heritage Marina Hotel,37.7992732,-122.4236169,hotel
Motel 6,37.7858389,-122.4176997,motel
The Monarch Hotel,37.7855945,-122.4200611,hotel
Santa Cruz Dream Inn,36.9616239,-122.0250516,hotel
Sea & Sand Inn,36.9608327,-122.0254492,motel
Terrace Court,36.9633327,-122.0238251,motel
Arena Hotel,37.3322374,-121.9062672,hotel
"Hotel Paradox, Autograph Collection",36.9768244,-122.0208845,hotel
Hotel Adagio,37.7870858,-122.4125399,hotel
Gaylord Suites,37.7871815,-122.4129166,hotel
Worth Hotel,37.787586,-122.4123652,hotel
Emperor Norton Inn,37.7876721,-122.411888,hotel
Hotel Zeppelin San Francisco,37.7877247,-122.4107104,hotel
The Donatello,37.7878325,-122.4103864,hotel
Hotel Diva,37.7873442,-122.4106526,hotel
Union Square Plaza Hotel,37.7872766,-122.410396,hotel
"The Barnes San Francisco, Tapestry Collection by Hilton",37.7866806,-122.408452,hotel
The Bartlett Hotel and Guesthouse,37.7866194,-122.4087755,hotel
Hotel Stratford,37.7869958,-122.4079011,hotel
St. Moritz Hotel,37.7866678,-122.4077762,hotel
The Mosser,37.7848765,-122.405137,hotel
BEI Hotel San Francisco,37.7776081,-122.4142344,hotel
Donnelly Hotel,37.7781173,-122.4160737,hotel
"The Jay, Autograph Collection",37.7946819,-122.4008922,hotel
Motel 6,36.9158299,-121.7865709,motel
Crocker Dining Hall,36.6185695,-121.9384477,hotel
Pacific Blue Inn,36.9680141,-122.0242631,hotel
Ocean Pacific Lodge,36.9655832,-122.0264085,motel
Bay Front Inn,36.9655119,-122.0261352,motel
Ramada Limited Santa Cruz,36.9795861,-122.0196909,hotel
Taj Campton Place Hotel,37.7891649,-122.4065795,hotel
JW Marriott,37.788316,-122.4104842,hotel
Oceana Inn Santa Cruz,36.9751752,-122.0198207,motel
Best Western Plus,36.9750897,-122.0185969,hotel
The Islander Motel,36.9754672,-122.0188905,motel
Continental Inn,36.9739022,-122.0190169,motel
Continental Inn,36.9739576,-122.0181917,motel
Motel Santa Cruz,36.9731839,-122.0178595,motel
Pacific Inn Santa Cruz,36.9721045,-122.0173889,motel
National 9 Motel,36.9816692,-122.0227198,motel
Holiday Inn Express,36.9843207,-122.0225531,hotel
Comfort Inn,36.9848685,-122.0227794,hotel
Best Western,36.9851853,-122.0227647,hotel
National 9 Motel,36.9854865,-122.0227147,motel
Hampton,36.9847462,-122.0239212,hotel
Hotel Solares,36.9701258,-122.0202516,motel
Americas Best Value Inn & Suites-Boardwalk,36.969201,-122.0196545,motel
Riverside Inn,36.96952,-122.0190989,motel
Budget Inn Motel Santa Cruz,36.9692171,-122.0179093,motel
Ocean Gate Inn,36.968971,-122.0167929,motel
Carousel Motel,36.9649408,-122.0172146,motel
Carousel Beach Inn,36.9651417,-122.0176868,hotel
Super 8,36.9671018,-122.0183166,motel
Capri Motel,36.967562,-122.0189845,motel
Knights Inn,36.9671293,-122.0196722,motel
Villager Santa Cruz,36.9675066,-122.0198931,motel
El View Lodge,36.9674135,-122.0222171,motel
St. Charles Court,36.9670104,-122.0228628,motel
Paradise Inn,36.9649772,-122.0216937,motel
Boca Del Cielo,36.9647692,-122.0216388,motel
Edgewater Beach Inn,36.9640571,-122.0240004,motel
Seaway Inn,36.9622419,-122.0256415,motel
Element Santa Clara,37.3882682,-121.9589505,hotel
Four Seasons Silicon Valley,37.460151,-122.1419907,hotel
La Quinta Inn Monterey,36.6057853,-121.8602075,hotel
Ontario Airport Inn,34.0714035,-117.6140827,motel
Ramada Ontario,34.0706727,-117.612526,hotel
Waterfront Hotel,37.7947636,-122.2781088,hotel
Jack London Inn Oakland,37.7953297,-122.2760399,hotel
Hilton Santa Cruz/Scotts Valley,37.036084,-122.02457,hotel
Comfort Inn Fontana,34.1228422,-117.5107884,hotel
Rodeway Inn,36.8991533,-121.7781008,motel
Residence Inn Ontario Airport,34.0679039,-117.6071398,hotel
DoubleTree Hotel,34.0661242,-117.6092681,hotel
Countryside Suites Ontario,34.0644614,-117.6098035,hotel
The Domain Hotel,37.352856,-122.0020835,hotel
TownePlace Suites San Jose Campbell,37.2865386,-121.9377912,hotel
San Jose Marriott,37.3303165,-121.8883393,hotel
Hilton San Jose,37.3292466,-121.8904592,hotel
Carlyle Hotel,37.2702002,-121.9455627,hotel
Clarion Inn Silicon Valley,37.2860053,-121.8422415,motel
Campbell Inn,37.2881695,-121.9372943,motel
Hilton Garden Inn Ontario/Rancho Cucamonga,34.0788539,-117.554482,hotel
Homewood Suites by Hilton Ontario-Rancho Cucamonga,34.0787188,-117.555537,hotel
Courtyard Ontario Rancho Cucamonga,34.0787659,-117.5535619,hotel
The Row Hotel,37.3231072,-121.9364296,hotel
Candlewood Suites – Silicon Valley San Jose,37.3523739,-121.935488,hotel
Hyatt Place San Jose/Downtown,37.3300936,-121.8910872,hotel
Hotel De Anza,37.3344146,-121.8950729,hotel
City Center Motel,37.3277261,-121.8833168,motel
The Westin San Jose,37.3309768,-121.8874559,hotel
Residence Inn Los Angeles LAX/Manhattan Beach,33.8906925,-118.3947658,hotel
Heritage Inn,37.4260619,-121.9123796,motel
Best Western Plus Brookside Inn,37.4268779,-121.9146995,hotel
Juniper Hotel Cupertino,37.3216296,-122.0315226,hotel
Sonesta ES Suites Sunnyvale,37.4001251,-122.0288867,hotel
Vagabond Inn Buttonwillow North I-5,35.4037656,-119.4018123,motel
Hotel Diamond,39.7282773,-121.8403483,hotel
Best Western Plus Inn Scotts Valley,37.0632472,-122.0039015,hotel
The Commerce Casino & Hotel,33.9988506,-118.14535,hotel
Claremont Resort & Club,37.8594506,-122.2420517,hotel
NASA Ames Exchange Lodge,37.4122311,-122.0590418,hotel
Hyatt Regency Santa Clara,37.4050623,-121.9764292,hotel
Sonesta San Jose - Milpitas,37.4226057,-121.9193734,hotel
Holiday Inn Express & Suites Watsonville,36.9167276,-121.7807475,hotel
Lake View Lodge,37.9548767,-119.1190406,motel
Lee Vining Motel,37.9571943,-119.1199309,motel
Boulder Lodge,37.7847576,-119.0721052,motel
Toiyabe Motel,38.5127641,-119.4704664,motel
West Walker Motel,38.5124449,-119.4658942,motel
Andruss Motel,38.513409,-119.4688418,motel
Gull Lake Lodge,37.7788599,-119.0795801,motel
Fern Creek Lodge,37.7660735,-119.1034701,motel
Yosemite Gateway Chalet,37.7636105,-119.1063517,motel
Whispering Pines,37.7650672,-119.1162223,motel
McGee Creek Lodge,37.5859364,-118.7829963,hotel
June Lake Pines Cottages,37.7781365,-119.0754571,motel
June Lake Motel,37.7786729,-119.075682,motel
Heidelberg Inn,37.7796958,-119.0749733,hotel
The Knoll Haus,37.780267,-119.076434,motel
Walker River Lodge,38.2567136,-119.22451,motel
Bodie Hotel,38.2555728,-119.2285821,hotel
The Cain House,38.2559789,-119.2296566,motel
Bridgeport Inn,38.2553781,-119.2268326,motel
Silver Maple Inn,38.2565507,-119.2293853,motel
Ruby Inn,38.2549629,-119.2292085,motel
Austria Hof Lodge,37.6475207,-119.0001202,hotel
Canyon Lodge,37.6448134,-119.0019083,hotel
Best Western Plus High Sierra Hotel,37.6486445,-118.9693227,hotel
Shilo Inns Mammoth Lakes,37.6460864,-118.9648921,hotel
Outbound Mammoth,37.6432166,-118.9670886,hotel
Tamarack Lodge & Resort,37.6189852,-119.0067521,hotel
Edelweiss Lodge,37.6291694,-118.9830625,hotel
Sierra Lodge,37.6492124,-118.9747674,hotel
Travelodge Mammoth Lakes,37.6493998,-118.9741793,hotel
The Mammoth Creek Inn Hotel & Spa,37.6365198,-118.9660986,hotel
Ventura Grand Inn,37.6493404,-118.9764916,motel
Mammoth Five Star Lodging,37.6499084,-118.9770203,hotel
"Motel 6 Mammoth Lakes, CA",37.6490887,-118.9724867,motel
Quality Inn Near Mammoth Mountain Ski Resort,37.6482239,-118.9752357,hotel
Innsbruck Lodge,37.6512076,-118.9821687,hotel
Alpenhof Lodge,37.6500434,-118.9835564,hotel
The Mammoth Inn,37.647425,-118.976797,hotel
Mammoth Mountain Inn,37.6517937,-119.0388143,hotel
"The Westin Monache Resort, Mammoth",37.6491594,-118.9862845,hotel
Beachside Inn,34.4084365,-119.6939306,hotel
Navy Lodge,37.4105033,-122.0655521,hotel
Hotel Current,33.7817387,-118.1303693,motel
The Langham Huntington,34.1207316,-118.1336961,hotel
Bardessono Hotel & Spa,38.403178,-122.3601652,hotel
Downtown Berkeley Inn,37.8675512,-122.2700594,motel
Nash Hotel,37.8722779,-122.2695673,hotel
La Quinta Inn Berkeley,37.8679962,-122.2959576,hotel
Holiday Inn Express & Suites Berkeley,37.8696853,-122.2906359,hotel
Fairmont Century Plaza,34.0575083,-118.4157229,hotel
Days Inn San Jose Convention Center,37.2773792,-121.833907,hotel
Mission Motel,37.2768669,-121.8336333,motel
Comfort Inn,36.9371895,-121.7789819,hotel
Extended Stay America - San Francisco - Belmont,37.5249941,-122.2669723,hotel
Courtyard,32.895757,-117.2035222,hotel
Caravelle Inn & Suites,37.3606088,-121.907899,motel
Holiday Inn,37.3615317,-121.9083159,hotel
San Jose Airport Inn,37.3627505,-121.909615,motel
Comfort Suites San Jose Airport,37.3637325,-121.9103959,hotel
Extended Stay America - San Jose - Downtown,37.3648429,-121.9113964,hotel
,39.5215018,-122.212885,hotel
Best Western Palm Court Hotel,38.5441697,-121.7421491,hotel
The Vine Inn Davis,38.5436349,-121.7427265,hotel
Hallmark Inn at UC Davis,38.5427115,-121.7393359,hotel
Best Western University Lodge,38.5421049,-121.7447096,hotel
"Aggie Inn, Ascend Hotel Collection",38.5415055,-121.7444687,hotel
Extended Stay America,37.6004989,-122.0686011,hotel
Pleasanton Marriott,37.6957229,-121.9354572,hotel
Extended Stay America,37.6901579,-121.9006868,hotel
Best Western Plus Orchid Hotel & Suites,38.7466283,-121.2672726,hotel
AC Hotel by Marriott Pleasanton,37.698589,-121.9300836,hotel
Homewood Suites Hilton,38.7732977,-121.2599867,hotel
Courtyard,38.7732684,-121.2590175,hotel
Avenue Inn Downtown San Luis Obispo,35.275005,-120.6682862,motel
,35.2861924,-120.665677,hotel
,35.2866562,-120.6650585,hotel
Homestead Motel,35.2858809,-120.6658369,motel
Garden Street Inn,35.2785097,-120.6624052,hotel
"Petit Soleil, Bed and Breakfast",35.2856246,-120.6548116,hotel
Sunbeam Motel,35.2876796,-120.652929,motel
Super 8 San Luis Obispo,35.2895221,-120.6497176,motel
Travelodge San Luis Obispo,35.2886273,-120.6508316,hotel
La Quinta Inn & Suites San Luis Obispo Downtown,35.2887924,-120.6504514,hotel
Granada Hotel and Bistro,35.2802825,-120.6611578,hotel
San Luis Inn and Suites,35.2875933,-120.6635527,motel
Sands Inn & Suites,35.2899063,-120.6510385,motel
The Wayfarer San Luis Obispo,35.2895674,-120.6515749,hotel
Apple Farm Inn,35.2902314,-120.6494075,motel
La Cuesta Inn,35.2911185,-120.6495965,motel
Motel 6 San Luis Obispo North,35.2482282,-120.6813254,motel
Motel 6 San Luis Obispo South,35.2430052,-120.684798,motel
Holiday Inn Express Sunnyvale,37.3699618,-122.0431247,hotel
JW Marriott Desert Springs Resort & Spa,33.7546325,-116.3621452,hotel
Hollister Inn,36.8591067,-121.4023512,motel
CordeValle,37.0676787,-121.6330476,hotel
University Park Inn and Suites,38.540178,-121.7383849,hotel
La Quinta Inn & Suites Davis,38.5421367,-121.7318074,hotel
Holiday Inn Express & Suites,38.5410378,-121.7306551,hotel
Days Inn by Wyndham Davis Near UC Davis,38.5500728,-121.7018823,hotel
Fairfield Inn Roseville,38.7626925,-121.2543095,hotel
Courtyard Roseville,38.7633722,-121.2543998,hotel
Residence Inn Roseville,38.76397,-121.2549003,hotel
Hilton Garden Inn Roseville,38.7636982,-121.2567787,hotel
Larkspur Landing Roseville,38.7629951,-121.2574853,hotel
Heritage Inn Express,38.7467526,-121.2705711,motel
Best Western Roseville Inn,38.7495262,-121.2685106,hotel
Extended Stay America - Sacramento - Roseville,38.7514434,-121.266888,hotel
Aloft Sunnyvale,37.3761927,-122.0288736,hotel
Springhill Suites,33.7269287,-116.4007281,hotel
Embassy Suites,33.794447,-117.8899707,hotel
Super 8 Yucca Valley,34.1225568,-116.4188767,motel
Davenport Roadhouse Restaurant & Inn,37.0109074,-122.1938941,hotel
Embassy Suites by Hilton San Rafael Marin County,38.0047618,-122.5323902,hotel
Beresford Hotel,37.7886702,-122.4108779,hotel
Marines' Memorial Club & Hotel,37.7887092,-122.4104936,hotel
Best Western Inn Santa Clara,37.3528099,-122.0013685,motel
Cherry Orchard Inn Sunnyvale,37.3529994,-122.0033228,hotel
Hotel Dena,34.1429563,-118.1442197,hotel
Hampton Inn Los Angeles/Arcadia/Pasadena;Hampton,34.1411775,-118.0234423,hotel
Main Stay Suites,34.4938095,-117.3289262,hotel
Hotel Nikko San Francisco,37.7858007,-122.4092663,hotel
Hilton San Francisco Airport,37.5899718,-122.3426773,hotel
San Diego Marriott La Jolla,32.8730891,-117.2155896,hotel
SureStay Plus Santa Clara Silicon Valley,37.3555779,-121.9452015,hotel
Sea Breeze Inn,36.9661846,-122.0195831,motel
Embassy Suites,32.874505,-117.2083165,hotel
Orland Inn,39.7409202,-122.2047568,motel
Hyatt Regency,33.6177623,-117.8880611,hotel
"Newport Beach Hotel, A Four Sisters Inn",33.6099725,-117.929917,hotel
Beacon Inn Motel,33.7895656,-118.200781,motel
State Motel,33.7895535,-118.1991049,motel
Hyatt Regency,33.6507926,-117.9906308,hotel
The Hilton Waterfront Beach Resort,33.6529482,-117.9938588,hotel
The Balboa Bay Club & Resort,33.615426,-117.9150786,hotel
Holiday Inn Express,33.6194226,-117.9205163,hotel
Hyatt House San Diego/Sorrento Mesa,32.8991369,-117.1916921,hotel
Best Western Plus Marina Shores Hotel,33.4658702,-117.6894306,hotel
,35.3845199,-119.0160954,hotel
,35.3849816,-119.0159509,hotel
Bakersfield Marriott at the Convention Center,35.3727615,-119.0118296,hotel
Courtyard,38.1398327,-122.2299148,hotel
,35.3738626,-119.0101121,hotel
Padre Hotel,35.3755654,-119.0215087,hotel
,35.3740591,-119.0101499,hotel
Best Western Plus Hill House,35.3736661,-119.0093089,hotel
Historic Downtowner Inn,35.3697979,-119.0193019,hotel
,35.3739624,-119.0088521,hotel
,35.3738648,-119.0100256,hotel
Howard Johnson Express Inn - Bakersfield,35.3183278,-119.0345995,hotel
Red Roof Inn,34.5794718,-118.1314273,hotel
,35.3440377,-119.0383863,motel
Econo Lodge near Bakersfield Fairgrounds,35.3442168,-119.038263,motel
,35.3781473,-118.9927142,hotel
Holiday Inn Express,35.3150608,-119.0296742,hotel
Roadrunner Inn & Suites,35.3851137,-119.0436817,motel
La Quinta Inn Bakersfield South,35.3836475,-119.0419125,hotel
Bakersfield Inn & Suites,35.3184052,-119.0314256,hotel
,35.3828445,-119.0411002,hotel
,35.3829341,-119.041615,hotel
"Motel 6 Bakersfield, CA - Convention Center",35.368938,-119.0443635,motel
Quality Inn & Suites,35.3991551,-119.0416817,hotel
Extended Stay America - Bakersfield - California Avenue,35.370045,-119.0416404,hotel
Super 8 by Wyndham Bakersfield South CA,35.3211383,-119.0383176,motel
Travelodge,35.36701,-119.0395726,hotel
Rodeway Inn & Suites,35.3655548,-119.0444574,motel
Ramada,35.3667565,-119.0421129,hotel
Super 8 by Wyndham Bakersfield/Central,35.3667036,-119.0440068,motel
Spark by Hilton Bakersfield Central,35.3675287,-119.039208,hotel
Four Points by Sheraton Bakersfield,35.3600015,-119.0589339,hotel
Vagabond Inn Bakersfield South,35.2947868,-119.0281875,motel
Homewood Suites by Hilton Bakersfield,35.3413087,-119.098611,hotel
Extended Stay America - Bakersfield - Chester Lane,35.3659481,-119.0454648,hotel
Red Roof Inn,35.3658495,-119.0394072,hotel
Knights Inn Bakersfield,35.346079,-119.0383312,motel
Ramada Limited Bakersfield Central,35.3458128,-119.0384858,hotel
Country Inn & Suites,35.3341538,-119.0380251,hotel
,35.3439108,-119.0021339,hotel
"Motel 6 Bakersfield, CA - Central",35.3610274,-119.0382647,motel
,35.3858467,-119.0229175,hotel
Super 8 by Wyndham Sacramento,38.6147567,-121.5376459,motel
Fairfield Inn & Suites,38.6155355,-121.5379236,hotel
La Quinta Inn & Suites,33.6757592,-117.7589585,hotel
La Quinta Inn & Suites Irvine Spectrum,33.6757483,-117.7586723,hotel
Residence Inn,33.6528298,-117.714216,hotel
Inn on Grove,37.7774723,-122.424076,motel
Garden Inn & Suites,36.8069085,-119.8832724,hotel
Radisson,36.7351233,-119.7901639,hotel
,34.0634873,-118.090907,motel
Gale's Motel,34.063641,-118.0910932,motel
Del Mar Motel,34.0484557,-118.0987686,motel
Embassy Suites by Hilton Ontario Airport,34.0655029,-117.5728561,hotel
DoubleTree by Hilton San Diego - Del Mar,32.9356278,-117.2365899,hotel
Econo Lodge Lake Elsinore Casino,33.6543176,-117.2947007,motel
Monte Verde Inn,38.9849859,-120.9359885,hotel
Travel Inn,33.6627823,-117.3016844,motel
Harrah's Lake Tahoe,38.959345,-119.9409184,hotel
Caesars Republic Lake Tahoe,38.9601708,-119.9426496,hotel
Holiday Inn Express San Diego-Sorrento Valley,32.8970957,-117.193615,hotel
"Seacliff Inn Aptos, Tapestry Collection by Hilton",36.9792793,-121.9107515,hotel
Hampton Inn,32.9348517,-117.2385083,hotel
Best Western,34.1051391,-117.5661018,hotel
Sunny Sands Inn,33.6528876,-117.9182878,motel
Marriott Residence Inn,33.8830021,-118.0240266,hotel
,33.6479372,-117.9182653,motel
Villa Del Mar Inn,33.4198274,-117.6193688,motel
Casa Tropicana,33.4197133,-117.6192182,hotel
Kimpton Shorebreak Huntington Beach Resort,33.6583544,-118.0027023,hotel
Rio Sands Motel,36.9696109,-121.9036615,hotel
Capistrano Inn,33.5026082,-117.6555598,motel
Rodeway Inn Old Town Temecula,33.4920085,-117.1465598,motel
Westin South Coast Plaza,33.6908083,-117.884149,hotel
Luz Hotel,37.7861846,-122.4153066,hotel
Hotel Layne,37.7863903,-122.4133364,hotel
Nazareth Hotel,37.7865793,-122.412989,hotel
Gateway Inn,37.7861015,-122.4121114,hotel
The Clift Royal Sonesta San Francisco,37.786716,-122.4111343,hotel
The Marker Union Square San Francisco,37.7866239,-122.4118321,hotel
Warwick San Francisco,37.7871515,-122.411369,hotel
Hotel Spero,37.7861449,-122.4116962,hotel
The Touchstone Hotel,37.7871837,-122.4111261,hotel
Club Wyndham Canterbury,37.7889893,-122.412791,hotel
Krupa Hotel,37.7878734,-122.4132237,hotel
Palomar Inn,33.49501,-117.150495,hotel
Ramada Costa Mesa/Newport Beach,33.6349717,-117.9235164,hotel
La Quinta Inn,33.6908212,-117.9220062,hotel
Oakridge Inn,34.3979313,-119.2991605,motel
Holiday Inn Express at Monterey Bay,36.6061282,-121.8571927,hotel
Embassy Suites,36.6067453,-121.8563511,hotel
Motel 6,33.1825729,-117.2955494,motel
Kensington Park Hotel,37.7884661,-122.4093917,hotel
Chancellor Hotel,37.7886605,-122.4087763,hotel
,35.6162273,-117.6693865,motel
Vagabond inn,35.6159638,-117.6693959,motel
Best Western China Lake Inn,35.6168223,-117.6693779,hotel
,35.6510214,-117.6721347,motel
W San Francisco,37.7854683,-122.4004503,hotel
Grand Bay Hotel San Francisco,37.5235024,-122.2612865,hotel
Holiday Inn Express,35.1432622,-118.4505964,hotel
,35.1264806,-118.4133233,motel
SureStay,35.1323244,-118.4539185,hotel
Red Caboose Lodge,35.1322873,-118.4532413,motel
Fairfield Inn & Suites,35.1321613,-118.4560941,hotel
Country Park Hotel,35.1323425,-118.4548214,hotel
Best Western Plus,36.764169,-119.7195225,hotel
Cozy Inn,33.6481819,-117.9136525,motel
Embassy Suites Temecula Valley Wine Country,33.5014078,-117.1490964,hotel
Econo Lodge,33.8473336,-117.9802466,motel
Joshua Inn Bed & Breakfast,36.8492257,-121.4059824,hotel
Desert Winds,35.056525,-118.1745715,hotel
Desert Inn,35.0462996,-118.1667722,motel
Palm Inn,35.0465795,-118.1682225,motel
Days Inn,35.0553196,-118.174167,hotel
Mariah Hotel,35.0449636,-118.1565771,hotel
The Hotel Temecula,33.4927395,-117.1493171,hotel
"Safari Inn, a Coast Hotel",34.1657453,-118.3251998,motel
Rancho California Inn,33.4988747,-117.1516703,hotel
Signature,33.4846796,-117.1432549,hotel
Best Western Country Inn,33.5139197,-117.1585027,hotel
Holiday Inn Express,33.5160562,-117.1596211,hotel
Extended Stay,33.5174881,-117.1608734,hotel
Oxford Suites Chico,39.7247912,-121.805356,hotel
Courtyard Chico,39.716276,-121.8038072,hotel
Residence Inn Chico,39.715609,-121.8034373,hotel
Holiday Inn Express Costa Mesa,33.648029,-117.911065,hotel
Days Inn Costa Mesa-Newport Beach,33.6488414,-117.9103726,hotel
Rose & Crown Hotel,34.146262,-118.1257792,hotel
DoubleTree by Hilton Sacramento,38.600891,-121.4331174,hotel
The Washington Inn,37.8017715,-122.2740292,hotel
Crowne Plaza,37.5966522,-122.0579269,hotel
Stardust Motel,34.0623948,-117.179781,motel
"Motel 6 Hayward, CA - East Bay",37.6081906,-122.066511,motel
Hotel Riu Plaza Fisherman´s Wharf,37.8071475,-122.4130624,hotel
Best Western Rose Quartz Inn,40.3065737,-121.232669,hotel
Wiebe Motel,36.8744341,-121.3999802,motel
,37.6091124,-122.0668244,motel
Best Western,37.4667803,-121.1747683,motel
Grand Residence by Marriott,38.9557374,-119.9435489,hotel
Margaritaville Resort Lake Tahoe,38.9582172,-119.9412963,hotel
Hotel Azure,38.9452305,-119.9716376,hotel
Meadow Stone Lodge - Aspen,38.6842399,-120.0691932,hotel
Travelodge,34.1464667,-118.106471,hotel
Rodeway Inn & Suites,33.8795443,-117.6001648,motel
,33.8795395,-117.6001555,motel
Best Western Plus La Mesa San Diego,32.7800398,-116.9916968,hotel
Rodeway Inn & Suites El Cajon San Diego East,32.7810021,-116.9836258,motel
Bayview Hotel Bed & Breakfast,36.9775126,-121.900385,hotel
Hotel Beverly Terrace,34.0802745,-118.3901085,hotel
Fairfield Inn,38.3888626,-122.8142778,hotel
Days Inn,35.6172806,-119.6560568,hotel
"Motel 6 Lost Hills, CA",35.6174848,-119.660183,motel
Renaissance ClubSport Aliso Viejo,33.5823388,-117.7299642,hotel
Holiday Inn Express,34.0307058,-117.576573,hotel
Best Western,34.9872805,-118.9472787,hotel
Holiday Inn Express & Suites Barstow-Outlet Center,34.8444795,-117.0847405,hotel
Motel 6,34.8567579,-117.085758,motel
Motel 6,37.0187138,-120.1340872,motel
Motel 6,38.4556538,-121.8447665,motel
Motel 6,37.0553656,-121.01329,motel
Country Inn & Suites,37.5117219,-122.265488,hotel
Pacheco Pass Motel,37.0056616,-121.5604736,motel
TownePlace Suites,37.5609492,-122.2789908,hotel
Holiday Inn Express,37.5136843,-122.2687322,hotel
Motel 6 San Jose - Campbell,37.2708673,-121.9456822,motel
Quality Inn Sunnyvale,37.407068,-121.9982547,hotel
Delta Hotels,37.3837202,-121.9615976,hotel
Fairfield Inn & Suites,35.1320951,-118.4559574,hotel
Howard Johnsons,34.1463666,-118.1175337,hotel
Morongo Resort,33.9220551,-116.8002445,hotel
Sonesta ES Suites Huntington Beach Fountain Valley,33.7081846,-117.9566431,hotel
Sonesta Select Huntington Beach Fountain Valley,33.7081897,-117.9551927,hotel
Days Inn & Suites Huntington Beach,33.7172377,-117.9694123,hotel
Holiday Inn,33.8044053,-118.1416085,hotel
Motel 6 Sunnyvale South,37.3953834,-122.0275537,motel
Larkspur Landing Sunnyvale,37.3946006,-122.0282438,hotel
Vagabond Inn Sunnyvale,37.396259,-122.027461,motel
Travel Inn,37.3912861,-122.0296228,motel
Comfort Inn,33.114623,-117.1020997,hotel
Holiday Inn Express Hotel & Suites,33.11629,-117.1013937,hotel
Courtyard San Francisco Fisherman's Wharf,37.8073839,-122.418524,hotel
Renaissance Palm Springs Hotel,33.8246308,-116.5385492,hotel
Comfort Inn & Suites Murrieta Temecula Wine Country,33.5675751,-117.2075244,hotel
Hilton Garden Inn,37.5639963,-122.2822802,hotel
Larkspur Landing Campbell,37.293825,-121.9598157,hotel
Sonesta Select San Ramon,37.7578099,-121.9650534,hotel
Extended Stay America - San Ramon - Bishop Ranch - West,37.7610149,-121.967609,hotel
Ayres Lodge Alpine,32.8391788,-116.777529,hotel
Esmeralda Renaissance,33.7229915,-116.3260285,hotel
Sonesta Essential Vacaville - Napa Valley,38.3541985,-121.9822817,hotel
Best Western Willits Inn,39.3901393,-123.3462355,hotel
Ramada Sunnyvale/Silicon Valley,37.3912735,-121.9921669,hotel
Hilton Garden Inn,33.5021049,-117.154147,hotel
Hampton Inn & Suites,33.5005747,-117.1533203,hotel
SpringHill Suites Marriott,33.5023064,-117.1531392,hotel
Four Points by Sheraton Anaheim,33.8173595,-117.9164255,hotel
,34.1801408,-118.3333571,hotel
Hotel Lucent,37.451273,-122.1793593,motel
Estancia La Jolla Hotel & Spa,32.8847513,-117.2447911,hotel
Menlo Park Inn,37.4550948,-122.1870145,motel
Residence Inn Palo Alto Menlo Park,37.4564668,-122.1863631,hotel
Best Western Plus,33.8023404,-117.9246706,hotel
Desert Palms Hotel and Suites,33.8037642,-117.9165007,hotel
Hotel Indigo Anaheim,33.8038556,-117.9136295,hotel
Alpine Inn,33.8038257,-117.9177294,hotel
Anaheim Islander Inn and Suites,33.8028651,-117.9130796,hotel
Sheraton Park Hotel at the Anaheim Resort,33.8010381,-117.9163344,hotel
Anaheim Portofino Inn & Suites,33.8021805,-117.9159932,hotel
Wyndham Garden Anaheim,33.803874,-117.9141426,hotel
Little Boy Blue Motel,33.8029298,-117.9127486,motel
Riviera Motel,33.8029373,-117.9124996,motel
Hotel Mac Rae,33.3435658,-118.3259687,hotel
Stanford Park Hotel,37.4475098,-122.171902,hotel
Best Western Plus Park Place Inn - Mini Suites,33.8095697,-117.9141803,hotel
John Muir Lodge,36.7418964,-118.9605485,hotel
Grant Grove accommodation reception,36.7404825,-118.963193,hotel
"The Clancy, Autograph Collection",37.7860189,-122.396737,hotel
Cedar Grove Lodge,36.7897852,-118.6680212,hotel
Tower23 Hotel,32.7969768,-117.2566301,hotel
Pacific Terrace Hotel,32.7995402,-117.2579243,hotel
Pala Casino / Hotel / Resort,33.3630744,-117.0831212,hotel
Pala Casino / Hotel / Resort,33.3632386,-117.0861478,hotel
Castle Inn & Suites,33.8049314,-117.9142193,hotel
Bear Springs Hotel,34.1337701,-117.1943906,hotel
Sea Ranch Lodge,38.6803996,-123.4291035,hotel
Red Cottage Inn and Suites,37.4592816,-122.19257,motel
Perramont Hotel,37.7668544,-122.4303908,hotel
Beck's Motor Lodge,37.7656225,-122.4319237,motel
Twin Peaks Hotel,37.7669345,-122.4303506,hotel
Hotel 4114,33.8176549,-117.91346,hotel
Hotel La Rose,38.437973,-122.720884,hotel
,33.861028,-118.4009176,motel
"Motel 6 San Diego, CA - Hotel Circle - Mission Valley",32.760278,-117.1858342,motel
Best Western Inn & Suites San Diego - Zoo/SeaWorld Area,32.7606059,-117.1886223,hotel
Premier Inns Mission Valley,32.760963,-117.1894371,motel
Calistoga Ranch,38.5802152,-122.5112219,hotel
Residence Inn Palo Alto,37.392548,-122.0950913,hotel
Pismo Beach Club,35.1416297,-120.6403156,hotel
,35.1393648,-120.6389012,motel
Sea Garden Motel,35.139585,-120.6389776,motel
Beachwalker Inn and Suites,35.1392504,-120.6393597,hotel
San Carlos Inn,37.5018315,-122.254517,motel
LiA Hotel,37.5021902,-122.2548423,motel
Park Vue Inn,33.8090699,-117.9141055,hotel
Hyatt Regency San Francisco Downtown SOMA,37.7865615,-122.4030903,hotel
Holiday Inn Express,34.021078,-117.3365891,hotel
Escondido Inn,33.1255406,-117.0893875,motel
Super 8 Escondido,33.1251595,-117.0914419,motel
Hyatt Place Dublin/Pleasanton,37.7057207,-121.8873687,hotel
The Anaheim Hotel,33.8062836,-117.9144908,hotel
Economy Inn,37.1046108,-121.6295785,motel
Embassy Suites,33.9173521,-117.8876636,hotel
Coronet Motel,37.4250326,-122.1449635,motel
Extended Stay America,34.4433815,-119.7913517,hotel
Budget Inn,38.5824207,-121.5212104,motel
Motel 6 Sacramento West,38.5736788,-121.5506386,motel
Rodeway Inn Capitol,38.5817111,-121.5191486,motel
Hampton Inn & Suites,38.5908729,-121.5572274,hotel
Sahara Motel,38.5807214,-121.5315717,motel
Stardust Motel,38.5799335,-121.5274831,motel
Ramada West Sacramento Hotel and Suites,38.5740758,-121.5500628,hotel
Extended Stay America - Sacramento-West Sacramento,38.589842,-121.5553165,hotel
Sky Ranch Motel,38.5806719,-121.5327915,motel
Sunset Inn & Suites,38.5788458,-121.5461112,motel
Flamingo Motel,38.5827695,-121.5202011,motel
Echo Lodge West Sacramento,38.5806389,-121.5333175,motel
Great Value Inn,38.5811707,-121.5275798,motel
Holiday Inn Express - West Sacramento,38.576605,-121.5473244,hotel
Crest Motel,38.5827174,-121.5209033,motel
Granada Inn,38.5754032,-121.5743752,motel
Hyatt Regency Sacramento,38.5777116,-121.4906905,hotel
Holiday Inn Sacramento-Capitol Plaza,38.5818657,-121.5023562,hotel
Best Western Courtesy Inn,33.8177027,-117.9236088,hotel
Motel 6,34.4409863,-119.8279814,motel
Lucia Lodge,36.0200311,-121.5512137,hotel
Motel 6,34.428001,-117.3856072,motel
Holiday Inn Express & Suites,34.4277891,-117.3842417,hotel
Rose Garden Inn,34.4400964,-119.7417886,motel
Sandpiper Lodge,34.4397401,-119.7394129,motel
Sunset Motel,34.4407159,-119.7383851,motel
Holiday Inn - Victorville,34.5078935,-117.3259254,hotel
Park Avenue Inn,34.5067123,-117.3246635,motel
La Quinta San Jose Airport,37.378288,-121.9390212,hotel
Hotel Carlton,37.7877499,-122.4179635,hotel
Days Inn & Suites by Wyndham Hayward,37.6644942,-122.0764771,hotel
Fairfield Inn & Suites,37.601544,-122.3901719,hotel
The Dylan at SFO,37.5979172,-122.3860174,hotel
Skylark Motel,33.9752859,-117.3578132,motel
Westin Palo Alto,37.4406775,-122.1628008,hotel
River Terrace Inn,38.3050454,-122.2831171,hotel
Hilton Orange County / Costa Mesa,33.6831412,-117.8845754,hotel
Tenaya Lodge at Yosemite,37.4731651,-119.6350256,hotel
Avenue of the Arts Costa Mesa,33.6915423,-117.8800628,hotel
Costa Mesa Marriott,33.6909026,-117.8789952,hotel
Best Western,37.4469489,-122.1724534,hotel
Fremont Marriott Silicon Valley,37.489077,-121.9461936,hotel
Good Nite Inn,37.4916483,-121.9502751,hotel
Bay club Fremont,37.4833891,-121.9406364,hotel
Hyatt Place Fremont,37.4835692,-121.9398649,hotel
LaQuinta Inn & Suites Fremont/Silicon Valley,37.4896813,-121.9457574,hotel
Hampton Inn Fremont,37.484728,-121.940182,hotel
Extended Stay America,37.4902186,-121.9468771,hotel
Sonesta ES Suites - Sorrento Mesa,32.9058242,-117.1747365,hotel
Country Inn Bed and Breakfast,39.4487226,-123.8055435,hotel
Oceanside Inn and Suites,39.4511915,-123.8054798,motel
Baymont Fort Bragg at Oceanview,39.4395457,-123.8055655,hotel
Harbor Lite Lodge,39.4285752,-123.8058026,hotel
Carine's Motel,39.4388477,-123.8047689,motel
Seabird Lodge Fort Bragg Ca,39.431097,-123.8051047,hotel
Comfort Inn & Suites,36.3263141,-119.3932163,motel
Fairfield Inn & Suites,37.5132581,-122.2537216,hotel
Galleria Park Hotel,37.7896054,-122.4035142,hotel
The Lodge at Big Bear Lake,34.2409307,-116.9147681,hotel
LakeFront4Less,34.2436911,-116.9168253,motel
Epiphany Hotel,37.4436147,-122.1615331,hotel
Sherwood Forest,34.2432772,-116.9124415,hotel
Hotel Keen,37.444787,-122.1640488,hotel
Holiday Inn,32.7223443,-117.1633979,hotel
"Motel 6 San Diego, CA - Downtown",32.7214615,-117.163221,motel
Hilton Bayfront Hotel,32.7030303,-117.1583411,hotel
Snow Bear Lodge,34.2419974,-116.918244,hotel
"Country Inn & Suites, San Bernardino (Redlands), CA",34.0654821,-117.2095338,hotel
Super 8 by Wyndham Redlands/San Bernardino,34.0678244,-117.2069254,motel
Americas Best Value Inn Redlands,34.0677206,-117.2079984,motel
Ayres Hotel Redlands,34.062367,-117.1969203,hotel
Doubletree Hotel,34.0038682,-118.1507031,hotel
Motel 6 Chico,39.7526491,-121.8437334,motel
Graduate by Hilton Palo Alto,37.4480005,-122.159258,hotel
The Sofia Hotel,32.7159742,-117.1642836,hotel
Extended Stay America - Oakland - Alameda,37.7884719,-122.2750323,hotel
Hilton,34.1861631,-118.5964949,hotel
Red Roof Inn,33.8187017,-116.4042447,motel
Pechanga Resort,33.4552132,-117.1068778,hotel
,39.3050012,-123.80064,hotel
Hotel Triton,37.7903408,-122.4053392,hotel
Hotel 32one,37.7899862,-122.4057291,hotel
White Swan Inn,37.7896183,-122.4112397,hotel
Petite Auberge,37.7895651,-122.411431,hotel
Chaparral Motel,37.8380472,-122.282487,motel
Four Points by Sheraton San Francisco Bay Bridge,37.838188,-122.2939725,hotel
Hyatt House Emeryville/San Francisco Bay Area,37.8394157,-122.2929279,hotel
Sonesta Emeryville - San Francisco Bay Bridge,37.8347852,-122.2938626,hotel
Catamaran Resort Hotel and Spa,32.7895977,-117.2526764,hotel
Blue Sea Beach Hotel,32.7904091,-117.2548471,hotel
Surfer Beach Hotel,32.7909745,-117.2549267,hotel
AC Hotel by Marriott Irvine,33.6721937,-117.8444028,hotel
Holiday Inn Express,34.0305805,-117.5767173,hotel
Montrose at Beverly Hills,34.0877916,-118.3874025,hotel
TownePlace Suites Sacramento Roseville,38.7947443,-121.2937027,hotel
Hampton Inn & Suites Roseville,38.7447118,-121.2677536,hotel
Springhill Suites Marriott,38.7953027,-121.2935437,hotel
Motel 6 Escondido,33.1291315,-117.0937307,motel
,34.1072644,-117.8167129,hotel
Motel 6,34.103278,-117.8173225,motel
Extended Stay America - Los Angeles - San Dimas,34.1074277,-117.8175606,hotel
"The Lodge at Sonoma Resort, Autograph Collection",38.2772276,-122.4611894,hotel
Fantasy Springs Hotel,33.7209874,-116.1922851,hotel
Hotel Fusion,37.7857197,-122.4085295,hotel
Aldrich,37.7853801,-122.4131465,hotel
Vantaggio Suites,37.7855639,-122.413165,hotel
Red Lion Hotel Eureka,40.8053206,-124.1503893,hotel
Cable Car Hotel,37.791258,-122.4172172,hotel
Hotel VIA,37.7793416,-122.39094,hotel
Rodeway Inn Humboldt Bay - Redwood Area,40.8044592,-124.1497401,motel
Four Seasons,37.7862212,-122.4042473,hotel
Calista Organic Hotel,37.7883899,-122.4216285,hotel
Homewood Suites by Hilton La Quinta,33.7207482,-116.2949639,hotel
King George Hotel,37.7867659,-122.4094446,hotel
The Handlery Union Square Hotel,37.7865574,-122.4089968,hotel
The Huntington Hotel,37.7913824,-122.4120837,hotel
Travelodge,36.5951277,-121.865991,hotel
Lone Oak Lodge,36.5975038,-121.8586198,motel
Motel 6 Monterey,36.5959338,-121.8605429,motel
Quality Inn,36.596392,-121.8640757,hotel
Candle Bay Inn,36.5959821,-121.8613586,motel
,36.5969903,-121.8546113,motel
Super 8 Monterey,36.595838,-121.8610879,motel
Best Western De Anza Inn,36.5967824,-121.8610517,hotel
Casa Verde Inn,36.5965816,-121.8622993,motel
Rodeway Inn Monterey Near Fairgrounds,36.5961688,-121.8648998,motel
"Monterey Beach Hotel, A Tribute Portfolio Hotel",36.6111218,-121.8589924,hotel
Sleep Inn & Suites Bakersfield North,35.4155507,-119.0599713,hotel
Hilton Garden Inn Bakersfield,35.3801665,-119.0486856,hotel
Holiday Inn Hotel & Suites Bakersfield,35.3797578,-119.0514395,hotel
SpringHill Suites Bakersfield,35.3798768,-119.0497963,hotel
Monterey Marriott,36.6005836,-121.8953152,hotel
Monterey Hotel,36.5997938,-121.8946796,hotel
Stevenson Hotel Monterey,36.5957651,-121.8926413,hotel
Merritt House Inn,36.6007593,-121.8959918,motel
Hilton Garden Inn,36.5914311,-121.8819803,hotel
Discovery Inn Monterey,36.6002381,-121.849143,motel
Spindrift Inn,36.6154849,-121.8995929,hotel
InterContinental The Clement Monterey Hotel,36.6170537,-121.9007108,hotel
Hotel Hermosa,33.8724444,-118.3957309,hotel
Wine and Roses,38.1464135,-121.3073619,hotel
"Hotel Fera Anaheim, a DoubleTree by Hilton Hotel",33.7883563,-117.8916032,hotel
Strawberry Lodge,38.7964288,-120.1455165,hotel
Hilton Garden Inn Folsom,38.6420076,-121.1897317,hotel
Larkspur Landing,38.6425105,-121.1917749,hotel
Hampton Inn Milpitas,37.4235413,-121.9198075,hotel
Staybridge Suites Silicon Valley-Milpitas,37.4223953,-121.922078,hotel
Homewood Suites Anaheim/Main Gate Area,33.7882941,-117.9180152,hotel
Delta Hotels,33.787179,-117.9164157,hotel
Anaheim Marriott Suites,33.7876542,-117.9171855,hotel
Hyatt Regency Orange County,33.789575,-117.9165693,hotel
Hampton Inn & Suites,33.7921702,-117.9160077,hotel
Embassy Suites Anaheim South,33.7913858,-117.9167433,hotel
Residence Inn Anaheim Resort Area/Garden Grove,33.7897253,-117.915572,hotel
Hilton Garden Inn,33.7907424,-117.9157171,hotel
,33.7982712,-117.9167704,hotel
DoubleTree Suites Anaheim Resort/Convention Center,33.7965244,-117.9159289,hotel
Magnolia Tree Hotel,33.7934922,-117.9143692,hotel
Cortona Inn and Suites Anaheim Resort,33.7982917,-117.9164483,hotel
Courtyard Anaheim Resort/Convention Center,33.7975351,-117.9166219,hotel
Capri Suites,33.7946796,-117.9157458,hotel
Anaheim Carriage Inn,33.795008,-117.9157647,hotel
Courtyard Milpitas Silicon Valley,37.4116036,-121.8927195,hotel
TownePlace Suites Milpitas Silicon Valley,37.412675,-121.8933691,hotel
Residence Inn,38.645287,-121.1162863,hotel
Courtyard,38.6462664,-121.1161781,hotel
Motel 6,32.7285759,-117.1727143,motel
Sea Pines Golf Resort,35.3157483,-120.8542501,hotel
,35.3163049,-120.8540132,hotel
,35.3165195,-120.8540401,hotel
Back Bay Inn,35.3272906,-120.8417198,hotel
Avila Lighthouse Suites,35.1798093,-120.7356269,hotel
Avila La Fonda Hotel,35.1800866,-120.733476,hotel
Avila Village Inn,35.1893374,-120.7216295,hotel
Spyglass Inn,35.1638312,-120.6887536,hotel
The Palomar Inn,35.1579122,-120.673514,hotel
BEST WESTERN PLUS Hotel at the Convention Center,33.7684123,-118.1859922,hotel
Ocean View Motel,35.1566398,-120.6701769,motel
Shell Beach Inn,35.1559218,-120.6682159,hotel
Pacific Plaza Resort Hotel,35.1059226,-120.6271462,hotel
Inn at the Cove,35.1524986,-120.6606262,hotel
Best Western Plus Shore Cliff Lodge,35.1491505,-120.6533271,hotel
Pismo Lighthouse Suites,35.1491067,-120.6510652,hotel
SeaCrest OceanFront Hotel,35.1477978,-120.6496989,hotel
Cottage Inn By the Sea,35.1487538,-120.6507368,hotel
The Tides Oceanview Inn & Cottages,35.1479832,-120.6486507,hotel
Kon Tiki Inn,35.1454698,-120.6466386,hotel
,35.1418886,-120.6439601,motel
Edgewater Inn & Suites,35.1423399,-120.6439333,hotel
Sea Gypsy Motel,35.1416798,-120.64412,hotel
San Luis Bay Inn,35.1793474,-120.7405538,hotel
"Motel 6 Pismo Beach, CA - Pacific Ocean",35.1406823,-120.6423968,motel
Beach House Inn,35.1403405,-120.6427343,hotel
Dolphin Cove Motel,35.1398466,-120.6432545,motel
Pismo Beach Hotel,35.1400814,-120.6417746,hotel
Beachcomber Inn,35.1387589,-120.6411681,motel
Sandcastle Hotel on the Beach,35.1374245,-120.6416811,hotel
SeaVenture Resort,35.1367138,-120.6410163,hotel
,35.1371377,-120.6405923,hotel
La Quinta Inn San Diego-Oceanside,33.2026611,-117.3846444,motel
The Cliffs Hotel and Spa,35.1654338,-120.6907588,hotel
American Inn,35.1210842,-120.6248583,motel
Hotel California,37.4265797,-122.1442767,hotel
Courtyard,35.6136043,-120.6915043,hotel
Seaview Inn,35.1222473,-120.6248402,motel
Holliday Inn Express,35.129139,-120.6077322,hotel
Hilton Garden Inn Pismo Beach,35.1366715,-120.6207344,hotel
Aloha Inn,35.1221893,-120.5891941,hotel
Hampton Inn & Suites Folsom,38.6445776,-121.1119707,hotel
Hampton Inn & Suites,35.1295448,-120.6016974,hotel
Premier Inn Motel,35.1305427,-120.601084,motel
Best Western Casa Grande Inn,35.1320291,-120.6056018,hotel
Beachway Inn Motel,35.1193309,-120.5887711,motel
The Masterpiece Hotel,35.3703858,-120.8496952,hotel
Quality Inn,35.1361628,-120.6308573,hotel
Seaside Inn,35.3684983,-120.8527183,hotel
Best Western Tradewinds,35.3690701,-120.8526685,hotel
Bayfront Inn,35.369435,-120.8541659,hotel
Pleasant Inn Motel,35.3670514,-120.8515502,hotel
Bay View Inn,35.3671684,-120.8519783,hotel
Breakers Motel,35.365548,-120.8520363,hotel
Beach Bungalow Inn and Suites,35.3684427,-120.8508193,hotel
La Serena Inn,35.3674916,-120.8508071,hotel
Blue Sail Inn,35.3664711,-120.8526781,hotel
Breakers Motel,35.3655954,-120.8517928,hotel
Blue Sail Inn,35.3665059,-120.8520679,hotel
Econo Lodge,35.3690934,-120.8497733,hotel
Ascot Suites,35.3656389,-120.8507934,hotel
Fireside Inn Motel,35.3652676,-120.8507815,hotel
Motel 6,35.13438,-120.6215582,motel
Sundown Inn,35.3644592,-120.8496016,hotel
Best Western Plus San Marcos Inn,35.3646855,-120.850848,hotel
Morro Crest Inn,35.3646951,-120.8496105,hotel
Comfort Inn Morro Bay,35.3637332,-120.8507867,hotel
Wuksachi Lodge,36.6095864,-118.7520432,hotel
Best Western Marina State Beach,36.7000634,-121.8042096,motel
Embarcadero Inn,35.3618761,-120.8519835,hotel
Ahwahnee Hotel,37.7462283,-119.5743314,hotel
Apple Tree Inn,33.09515,-116.6456362,motel
Gray's Inn & Gallery,35.3633071,-120.8526799,hotel
River Lodge Motel,35.5878563,-120.6969323,motel
Hampton Inn,35.5885846,-120.6980649,hotel
La Bellasera Hotel & Suites,35.5882233,-120.6972531,hotel
Morro Shores Inn and Suites,35.3794744,-120.8561955,motel
Motel 6,35.3794943,-120.8568848,motel
Wine Country Inn,35.6514276,-120.6930495,motel
Adelaide Inn,35.6422753,-120.6871082,hotel
Avalon Motel,35.6484026,-120.6938535,motel
Adelaide Inn,35.6423438,-120.6881361,hotel
Avalon Motel,35.6480087,-120.6936443,motel
Townhouse Motel,35.6430042,-120.6934115,motel
Budget Inn,35.642665,-120.6932851,motel
Best Western Plus Black Oak,35.6413248,-120.6874607,hotel
Holiday Inn Express & Suites,35.6407419,-120.6887894,hotel
Paso Robles Inn,35.6255436,-120.6916667,hotel
Travelodge,35.6422549,-120.6932874,hotel
Black Oak,35.6414043,-120.6878514,hotel
Budget Inn,35.6426927,-120.6937765,motel
Adelaide Inn,35.642782,-120.6880187,hotel
Adelaide Inn,35.6426769,-120.6871087,hotel
Melody Ranch Motel,35.6238238,-120.691657,motel
Morro Gardens,35.3802657,-120.853617,motel
Astro Motel,34.1458571,-118.0922637,motel
Super 8,34.146665,-118.09101,motel
Carlton Hotel,35.4894661,-120.6698725,hotel
Moonstone Landing,35.5733271,-121.1121772,hotel
Little Sur Inn,35.5725293,-121.1119471,hotel
Castle Inn,35.5780802,-121.1148055,hotel
The Blue Whale Inn,35.5795935,-121.116337,hotel
Cambria Shores Inn,35.5741249,-121.1122227,hotel
Cambria Landing Inn,35.5771295,-121.1140492,hotel
Sand Pebbles Inn,35.5736692,-121.1122444,hotel
Captain's Cove Country Inn,35.5763551,-121.1132445,hotel
Windrush Inn,35.5801883,-121.1170122,hotel
Blue Dolphin Inn,35.5764754,-121.1134674,hotel
Motel 6,35.4668895,-120.6506345,motel
Vino Inn & Suites,35.4878415,-120.6663871,hotel
Fairfield by Marriott Inn & Suites Atascadero,35.5011279,-120.6869149,hotel
Abigail Hotel,37.7808907,-122.4161414,hotel
Best Western Plus Executive Suites,37.467999,-122.2086924,hotel
Hotel Strata Mountain View,37.3811757,-122.0760293,hotel
Motel 6,33.6059854,-114.6025577,motel
Quality Inn,33.6059916,-114.6036402,hotel
Super 8,33.6059823,-114.6029879,motel
Holland Inn and Suites,35.3890785,-120.8579659,motel
California Valley Motel,35.3249738,-120.0040413,motel
J. Patrick House Bed and Breakfast Inn,35.5575528,-121.0778895,hotel
Cambria Pines Lodge,35.5587153,-121.0801491,hotel
The Squibb House,35.562716,-121.0824475,hotel
Holiday Inn Express Hotel & Suites Atascadero,35.4667764,-120.653143,hotel
Hilton Garden Inn Cupertino,37.3334581,-122.0148607,hotel
Inn on Folsom,37.7754186,-122.4099856,hotel
Howard Johnson,33.1240968,-117.0904472,hotel
Rodeway Inn,33.1397422,-117.0927404,motel
Bluebird Inn,35.563034,-121.0856633,hotel
Creekside Inn,35.5659848,-121.0783512,hotel
Olallieberry Inn,35.5654274,-121.0797258,hotel
Bridge Street Inn,35.5658148,-121.0818585,hotel
Cambria Palms Motel,35.5660733,-121.0775107,motel
Valley View Casino and Hotel,33.2194762,-116.9730439,hotel
Best Western Coyote Point,37.5805183,-122.3233492,hotel
,35.3158757,-120.8540796,hotel
Harbor Motel,33.776801,-117.9142183,motel
Days Inn and Suites,33.7771965,-117.9145621,hotel
Clarion Hotel Anaheim Resort,33.7990744,-117.9161873,hotel
Castaway Motel,33.7883089,-117.8733092,motel
Parkside Inn Fresno,36.7565164,-119.8283701,motel
"The Ritz-Carlton, Laguna Niguel",33.4748211,-117.7199059,hotel
Fairfield Inn & Suites,33.5209829,-117.1635318,hotel
City Center Inn & Suites,37.7771825,-122.4089433,hotel
Hotel Ikon,37.7893114,-122.4058551,hotel
Mirage Inn & Suites,37.7357474,-122.5024085,hotel
Holiday Inn Express & Suites,38.4239799,-121.3987218,hotel
Embassy Suites Milpitas,37.4346509,-121.8919535,hotel
Dune Surfer Inn,35.1070103,-120.623683,hotel
Courtyard Santa Barbara Downtown,34.4270083,-119.7100887,hotel
Holiday Inn & Suites Barstow,34.8498111,-117.0849182,hotel
Bun Boy Motel,35.265309,-116.0737395,motel
Holiday Inn Express,35.6399801,-120.6889162,hotel
"Studio 6 Vallejo, CA – Napa Valley",38.1106262,-122.2277648,motel
Howard Johnson Inn and Suites Vallejo,38.1105913,-122.2279229,hotel
Casa Munras Garden Hotel & Spa,36.5955264,-121.8934244,hotel
Extended Stay America - San Jose - Airport,37.3751946,-121.917466,hotel
America Extended Stay,34.2301379,-118.5543901,hotel
Days Inn,34.9392742,-118.9328508,hotel
DoubleTree by Hilton,32.7584642,-117.1768098,hotel
Candlewood Suites,32.7577818,-117.1757059,hotel
Howard Johnson Inn San Diego Hotel Circle,32.7586638,-117.178574,motel
The McCloud River Mercantile Hotel,41.2532207,-122.1393909,motel
La Quinta Inn & Suites Bakersfield North,35.4402641,-119.0757001,hotel
Holiday Inn Express & Suites Bakersfield Central,35.3878191,-119.0437199,hotel
Hampton Inn & Suites Bakersfield North-Airport,35.4396794,-119.0759288,hotel
Comfort Inn & Suites Sequoia Kings Canyon,36.4258971,-118.9145923,hotel
Best Western Plus,35.6123264,-121.1460803,hotel
Azul Inn San Simeon,35.6113952,-121.1409692,hotel
Sea Breeze Inn,35.6106357,-121.1425003,motel
Mithila Hotel,37.7885404,-122.4163519,hotel
Hotel Julian,37.7885735,-122.4159602,hotel
Visalia Marriott at the Convention Center,36.3283354,-119.2914273,hotel
BEST WESTERN Clovis Cole,36.8252647,-119.6994302,hotel
Wayfinder Bishop,37.3671053,-118.3963832,hotel
Super 8 by Wyndham Bishop,37.3564325,-118.3957287,motel
Caples Lake Resort,38.7033455,-120.05098,hotel
Carriage House Inn,39.5600888,-120.8281668,motel
Downieville River Inn & Resort,39.5593657,-120.8302542,motel
Riverside Inn,39.5596068,-120.8280889,motel
Sierra City Hotel,39.5653544,-120.6361461,hotel
Travelodge by Fishermans Wharf,37.8053016,-122.4178931,hotel
Suites at Fisherman's Wharf,37.8055042,-122.4205982,hotel
San Remo Hotel,37.8042784,-122.4136154,hotel
Best Western Plus Raffles Inn & Suites,33.797571,-117.9144876,hotel
Anaheim Express Inn Maingate,33.7955514,-117.9160164,hotel
Best Western Escondido,33.1470679,-117.1022471,hotel
Holiday Inn Express Garden Grove,33.7750174,-117.9082523,hotel
La Quinta Fresno Yosemite,36.740541,-119.7799338,hotel
Irvine Marriott,33.6783556,-117.8497498,hotel
University Plaza Waterfront Hotel,37.9565607,-121.2943717,hotel
Ayres Hotel Anaheim,33.8054544,-117.8779967,hotel
Extended Stay America - Anaheim Hills,33.852207,-117.8401469,hotel
Plaza la Reina,34.0599765,-118.4423719,hotel
W Los Angeles - West Beverly Hills,34.0629801,-118.441,hotel
Clarrion Inn,33.7237649,-116.1977581,motel
Hotel Angeleno,34.0737523,-118.4682017,hotel
Hilgard House Hotel,34.0632015,-118.441744,hotel
On the Beach Bed & Breakfast,35.4491773,-120.9057097,hotel
Motel 6,34.2598088,-116.8666773,motel
The Club,34.2402538,-116.9152715,hotel
Microtel Inn,37.1227171,-121.6268386,motel
Cayucos Sunset Inn,35.447062,-120.9002663,hotel
Estero Bay Motel,35.4478895,-120.9018054,motel
Cayucos Beach Inn,35.446094,-120.8980045,hotel
Dolphin Inn,35.4460825,-120.8977772,hotel
Beachwalker Inn,35.4453527,-120.8967495,motel
Cypress Tree Motel,35.4469103,-120.8997568,motel
Cayucos Motel,35.4476209,-120.9025923,motel
Seaside Motel,35.4471783,-120.9017345,motel
Shoreline Inn,35.4480267,-120.9034055,hotel
"The Ritz-Carlton, Lake Tahoe",39.2671007,-120.1283357,hotel
Hilton Long Beach,33.7680314,-118.2013886,hotel
Big Sur Lodge,36.2528522,-121.7856806,hotel
,36.2504956,-121.7858815,motel
Olympic Village Inn,39.1998702,-120.2387346,hotel
Garden Inn,33.9216733,-117.4431286,motel
Simply Home Inn and Suites,33.9160073,-117.4531393,motel
Schull Lodge,39.3136952,-120.3409603,hotel
Boreal Inn,39.3389248,-120.3463151,motel
Embassy Suites by Hilton Hotel Santa Clara,37.3839038,-121.9785337,hotel
Residence Inn Sunnyvale Silicon Valley I,37.3879726,-121.9884579,hotel
The Culver Hotel,34.0238352,-118.3941647,hotel
Extended Stay America - Sacramento - Arden Way,38.6053745,-121.4371447,hotel
Extended Stay America,33.8073849,-117.8723772,hotel
Hampton,35.3536395,-118.915539,hotel
Hotel Griffon,37.7928777,-122.3922144,hotel
1 Hotel San Francisco,37.7936871,-122.3932917,hotel
Harbor Court Hotel,37.7926772,-122.3921483,hotel
La Quinta Inn & Suites Fowler,36.6279462,-119.6844476,hotel
Fairfield Inn & Suites,36.5205131,-119.565676,hotel
Solaire Inn and Suites,34.924033,-120.4367255,motel
Travelodge Santa Maria,34.9331512,-120.4353149,hotel
Radisson,34.8965541,-120.444857,hotel
Loews Santa Monica Beach Hotel,34.0090939,-118.493151,hotel
Candlewood Suites Anaheim - Resort Area,33.8050888,-117.9074211,hotel
Homewood Suites,38.6548286,-121.5299808,hotel
Hampton,38.6539607,-121.53024,hotel
Holiday Inn Express,38.655091,-121.5290363,hotel
Mission Inn San Francisco,37.7112161,-122.4473451,motel
Extended Stay America - Sacramento - Northgate,38.6387199,-121.476363,hotel
Quality Inn Sacramento North,38.6378172,-121.4760285,hotel
Royal Pacific Motor Inn,37.7974208,-122.4078313,motel
Courtyard Oakland Downtown,37.8010535,-122.2727752,hotel
Motel 6,34.9796779,-120.4316592,motel
Castro Hotel,37.7983511,-122.4092527,hotel
Fairfield Inn & Suites Santa Maria,34.9774901,-120.4351141,hotel
Homewood Suites by Hilton Santa Maria,34.9792883,-120.4331682,hotel
Candlewood Suites,34.9781249,-120.4348873,hotel
Beresford Arms Hotel,37.7873765,-122.4135667,hotel
Coventry Inn,37.7999626,-122.4330087,motel
Holiday Inn San Francisco Golden Gateway,37.7898461,-122.421758,hotel
La Quinta Inn & Suites Anaheim,33.8043553,-117.909488,hotel
Extended Stay America Orange County - Anaheim Convention Center,33.8048637,-117.908828,hotel
Four Points by Sheraton Sacramento International Airport,38.6550439,-121.5388994,hotel
The Inn at Saratoga,37.2578727,-122.0344258,hotel
Hyatt Place UC Davis,38.535581,-121.7462684,hotel
Vagabond Inn Executive Old Town,38.5833108,-121.5017296,motel
Embassy Suites by Hilton Sacramento - Riverfront Promenade,38.5795687,-121.5069076,hotel
Hotel Valencia - Santana Row,37.3208562,-121.9480934,hotel
Hilton Garden Inn Sacramento/South Natomas,38.6112122,-121.5118138,hotel
SpringHill Suites Sacramento Airport Natomas,38.6106252,-121.5139796,hotel
The Traveler's Hotel,36.6755364,-121.6544159,hotel
,38.6010718,-121.4560869,hotel
,38.5835895,-121.515364,motel
,38.5831252,-121.5155489,motel
,35.3164177,-120.8545315,hotel
Sonesta Select Pleasant Hill,37.9457712,-122.0595687,hotel
Ramada by Wyndham Merced,37.2887433,-120.4533266,hotel
Extended Stay America - Fremont - Newark,37.531976,-122.0042109,hotel
Hearst Hacienda Lodge,36.0102762,-121.2427247,hotel
IHG Army Hotels Gibb Hall,36.011484,-121.2434947,hotel
Mission Ranch Hotel,36.5422966,-121.9230116,hotel
La Quinta Inn & Suites,37.6645312,-122.1183532,hotel
Hampton Inn & Suites,37.3987817,-122.0757293,hotel
Best Western,37.2926141,-120.4629106,hotel
Sandpiper Lodge,37.2928605,-120.4635171,motel
Pacific Express Inn,37.2932783,-120.4642793,motel
Courtyard,37.2939231,-120.4653694,hotel
Quality Inn,37.2945022,-120.4660876,hotel
Santa Maria Inn,34.9435643,-120.4365523,hotel
Los Gatos Village Inn,37.2229322,-121.9852658,motel
Toll House Hotel,37.2210844,-121.9854158,hotel
Laguna Mountain Lodge,32.867123,-116.4193724,motel
,32.8668672,-116.4199886,motel
,32.8666755,-116.4202857,motel
"Dream Hollywood, by Hyatt",34.100172,-118.3301925,hotel
Tang Fat Enterprises Company,37.7982565,-122.4084123,hotel
The Hotel at Indian Palms,33.6969478,-116.2324373,hotel
Hilton Anaheim,33.8006029,-117.9184256,hotel
Great Wolf Lodge,33.7791609,-117.9160268,hotel
Town and Country Resort & Convention Center,32.7633227,-117.1679481,hotel
Cal Neva Lodge & Casino,39.2246375,-120.0054045,hotel
Pelican inn,37.8646225,-122.5749554,hotel
Ramada Inn,37.286857,-120.4532394,hotel
Friendship Inn,37.3517811,-122.0108842,motel
Super 8 Anaheim/Disneyland Drive,33.8195194,-117.923036,motel
Riverside Marriott,33.9855504,-117.3728535,hotel
Lake Tahoe Vacation Resort,38.9498704,-119.9571308,hotel
Best Western,34.2435268,-116.8809066,hotel
Hilton Garden Inn Palmdale,34.6085535,-118.1541445,hotel
Travelodge Fullerton Near Anaheim,33.85719,-117.9422364,hotel
SpringHill Suites,33.8677554,-117.8812708,hotel
,34.2113951,-117.0853074,hotel
Holiday Inn Express,34.8190422,-118.8821296,hotel
Clementine Hotel & Suites Anaheim,33.8059976,-117.9090466,hotel
Holiday Inn Express Lancaster,34.6773102,-118.1624846,hotel
Comfort Inn & Suites,34.6789292,-118.1626032,hotel
SpringHill Suites Lancaster Palmdale,34.6789695,-118.1639055,hotel
Oxford Inn,34.6761121,-118.1606186,hotel
Hyatt Centric Santa Clara Silicon Valley,37.3866374,-121.9836329,hotel
Motel 6,34.6744577,-118.1598618,motel
La Quinta,35.6454198,-120.6708974,hotel
Howard Johnson Berkeley,37.870189,-122.2812342,hotel
Holiday Inn Express La Mesa Near SDSU,32.7749454,-117.025904,hotel
Days Inn Los Angeles LAX/Redondo And Manhattan Beach,33.8886206,-118.3518034,hotel
,33.8887758,-118.3519994,motel
,34.2047219,-117.1034828,hotel
The Utah Inn,37.7793054,-122.3981588,hotel
Fairfield Inn & Suites Oakland Hayward,37.6331402,-122.1120633,hotel
Villa Motel,35.2880507,-120.6526095,motel
Lamplighter Inn & Suites,35.2874204,-120.6534269,motel
Hamilton Cove,33.3545442,-118.3311773,hotel
Holiday Inn,38.1798033,-122.2539075,hotel
Ayres Suites Yorba Linda,33.8724401,-117.7412532,hotel
Extended Stay America - Orange County - Yorba Linda,33.8726149,-117.7392999,hotel
Sonesta Anaheim Resort Area,33.8002575,-117.9013087,hotel
Sonesta ES Suites Anaheim,33.8009313,-117.9015188,hotel
LEGOLAND California Hotel,33.1260122,-117.3101218,hotel
Super 8 Hotel,32.5843881,-117.0952089,hotel
Dolphin's Cove Resort,33.7970749,-117.9135615,hotel
Lighthouse Inn,41.7502108,-124.1812538,motel
Casa Loma Beach Hotel,33.5431203,-117.7871502,motel
Sonesta Select San Jose Airport,37.3654568,-121.918369,hotel
Hyatt Place San Jose Airport,37.3735468,-121.9212501,hotel
DoubleTree Club by Hilton Orange County Airport,33.6970556,-117.8648481,hotel
Colton Inn,36.5952936,-121.8972043,hotel
Quality Inn On Historic Route 66,34.8927107,-117.0034266,hotel
Days Inn,34.8907551,-117.0035828,hotel
Ramada,34.8941451,-117.001388,hotel
Travelodge,34.8905109,-116.9993346,hotel
Joshua Tree Inn,34.1343004,-116.3268555,motel
Wittle Inn,37.369102,-122.0330535,motel
Phoenix Hotel,37.7829494,-122.4181797,hotel
Coastside Inn,37.4655507,-122.4344014,motel
Lakeland Village,38.9470141,-119.9627742,hotel
Beach Retreat & Lodge at Tahoe,38.9463818,-119.9671943,hotel
Travel Inn,38.946335,-119.9620068,motel
Tahoe Lakeshore Lodge & Spa,38.9477136,-119.9644343,hotel
Postmarc Hotel and Spa Suites,38.9490063,-119.9555731,hotel
Howard Johnson Express Inn S. Lake Tahoe,38.9469938,-119.9639669,hotel
Stateline Economy Inn & Suites,38.956221,-119.9450019,motel
"Hotel Becket, Trademark Collection by Wyndham",38.9552237,-119.9456528,hotel
Park Tahoe Inn,38.9554696,-119.9453934,motel
Heavenly Inn,38.9562691,-119.9474403,motel
Tahoe Seasons Resort,38.9384957,-119.9382231,hotel
Secrets Inn,38.9564249,-119.9477864,hotel
Holiday Inn Express South Lake Tahoe,38.9542415,-119.947204,hotel
Blackjack Inn South Lake Tahoe,38.9559407,-119.9451744,motel
Highland Inn,38.9544647,-119.9461456,motel
The Trailhead,38.95229,-119.9483821,hotel
Tahoe Chalet Inn-Lake Tahoe Hotel,38.9517369,-119.949625,motel
South Shore Inn,38.9520155,-119.9467543,motel
Midway Inn,38.9520202,-119.9490134,motel
Pioneer Inn,38.9506864,-119.9481273,motel
Thunderchief Inn,38.9530208,-119.9460827,motel
Travelers Inn Suites,38.9528177,-119.9461682,motel
Hyatt Centric The Pike Long Beach,33.7649798,-118.194661,hotel
Sunray Tahoe Hotel,38.9282629,-119.982759,motel
Matterhorn Motel,38.9176699,-119.9984791,motel
The Red Lodge,38.9094164,-120.0013902,motel
Apex Inn,38.9083429,-120.0009266,motel
Knott's Hotel,33.8404337,-117.9986713,hotel
Concord Plaza Hotel,37.9804471,-122.0577938,hotel
Hotel Irvine,33.6779335,-117.8402424,hotel
,34.7042822,-118.1450749,hotel
,34.7041579,-118.1450055,hotel
,34.7042759,-118.144539,hotel
,34.7042621,-118.1448229,hotel
The Encinitan Hotel & Suites,33.0483508,-117.2914707,hotel
The Burney Motel,40.8893094,-121.6540708,motel
Bella Notte Inn,36.9642806,-121.9921878,hotel
Holiday Inn Express Hermosa Beach,33.8553262,-118.3908617,hotel
Hyatt House San Jose/Silicon Valley,37.4165001,-121.9530203,hotel
Country Hearth Inn San Francisco,37.7983713,-122.4463082,motel
El Rancho Motel,36.87538,-121.7586471,motel
Country Inn & Suites,32.8980373,-117.1926412,hotel
Borg's Motels,36.6263223,-121.9177356,motel
Marriott's Newport Coast Villas,33.5826362,-117.8418322,hotel
Extended Stay America - Dublin - Hacienda Dr.,37.7050499,-121.8795795,hotel
Thunder Valley Casino Resort,38.8404249,-121.3132137,hotel
,38.8402288,-121.3145909,hotel
Alpha Inn & Suites,37.7987262,-122.4428668,motel
Marina Motel,37.7991861,-122.4438457,motel
La Luna Inn,37.7985592,-122.4439298,motel
Holiday Inn Express San Francisco Airport North,37.6443722,-122.4036046,hotel
"Martis Valley Lodge, Tapestry Collection by Hilton",39.3176029,-120.1523586,hotel
The Marina Inn on San Francisco Bay,37.6971041,-122.188602,hotel
Saga Motor Hotel,34.146499,-118.1166245,motel
Hampton Inn & Suites San Jose,37.3018182,-121.85771,hotel
Avalon Lodge,38.9580354,-119.9465564,motel
Forest Suites Resort,38.9557004,-119.9409248,hotel
The Bristol Hotel,32.7164231,-117.1636002,hotel
Four Points by Sheraton San Diego,32.8108685,-117.148512,hotel
Ramada Mountain View,37.4063468,-122.0637545,hotel
Buckeye Tree Lodge,36.4800065,-118.8381681,motel
Gateway Lodge,36.4798075,-118.8384421,motel
Sequoia Inn,36.4798991,-118.8389396,motel
Holiday Inn Express,33.8547684,-117.9258861,hotel
Days Inn,33.8569593,-117.9993332,hotel
Fairfield Inn & Suites Anaheim North/Buena Park,33.8585658,-117.9959742,hotel
Sheraton,33.8684752,-118.060644,hotel
Sequoia Motel,36.4549846,-118.8870275,motel
White Horse Resort,36.4545034,-118.8879741,motel
Courtyard by Marriott San Diego Downtown Little Italy,32.7224056,-117.1651825,hotel
Best Western Pasadena Inn,34.1459259,-118.0770198,hotel
The Rose Hotel,37.663981,-121.8748278,hotel
Hyatt Vacations Club at Northstar Lodge,39.2757476,-120.1227394,hotel
Wyndham Garden San Jose Airport,37.362023,-121.9067408,hotel
Hilton Garden Inn San Jose Airport,37.3630672,-121.9076623,hotel
Courtyard San Jose Airport,37.3646033,-121.9082733,hotel
Pavilion Inn San Jose,37.3616677,-121.9044728,motel
Extended Stay America,37.7812794,-121.9710646,hotel
,33.8378406,-117.992954,hotel
Motel 6,33.7583123,-118.0195591,motel
El Colibri Hotel & Spa,35.568755,-121.1052471,hotel
Pine Mountain Inn,34.8499501,-119.1654319,hotel
Tomales Bay Resort,38.1069733,-122.8625263,hotel
Wilshire Motel,34.0456295,-118.4662041,motel
2,37.4076649,-122.1199916,hotel
Country Inn Motel,37.4047355,-122.117335,motel
Dinah’s Garden Hotel,37.4079007,-122.1196241,hotel
The Nest,37.4172067,-122.1290549,hotel
Glass Slipper Inn,37.4165696,-122.1288873,hotel
Comfort Inn,37.4167081,-122.1282944,hotel
Travelodge Palo Alto,37.4210912,-122.1373826,hotel
Hotel Zen,37.4120268,-122.1252491,hotel
The Palo Alto Inn,37.4075726,-122.1217342,hotel
Courtyard,37.4047477,-122.1192085,hotel
Hotel Parmani,37.4206265,-122.1387413,motel
Oak Creek Apartments | Stanford,37.4321399,-122.1868434,hotel
Stanford Terrace Inn,37.4269492,-122.1494584,hotel
Howard Johnson,36.963745,-122.0254384,hotel
Good Nite Inn Redwood City,37.496144,-122.2353655,motel
DoubleTree by Hilton Hotel Pleasanton at the Club,37.7005172,-121.9180082,hotel
Residence Inn,37.7631159,-121.9538263,hotel
Courtyard,33.9750378,-117.3449584,hotel
Dynasty Suites Hotel,33.9768511,-117.3404671,hotel
Kimpton Canary Hotel,34.4204303,-119.7025512,hotel
Doryman's Oceanfront Inn,33.6085018,-117.9288045,hotel
Hampton Inn & Suites Agoura Hills,34.1456589,-118.7822729,hotel
Union Hotel – Sierra Retreat,39.6825161,-120.9846795,hotel
